     2.10           OBSERVATION DATA    G (GPS)             RINEX VERSION / TYPE
GOGEO               M.KREJ              20230623 173725 UTC PGM / RUN BY / DATE 
COMMENT1                                                    COMMENT             
MARKER1                                                     MARKER NAME         
                                                            MARKER NUMBER       
MKREJ               INNOVA                                  OBSERVER / AGENCY   
RCV1                                                        REC # / TYPE / VERS 
ANT1                                                        ANT # / TYPE        
  3642325.0000  1411093.3420  5025370.3360                  APPROX POSITION XYZ 
        0.0000        0.0000        0.0000                  ANTENNA: DELTA H/E/N
     1     1                                                WAVELENGTH FACT L1/2
     3    C1    L1    S1                                    # / TYPES OF OBSERV 
     1.000                                                  INTERVAL            
  2014    12    20     0     0   19.6540000     GPS         TIME OF FIRST OBS   
  2014    12    20     0     0   19.6540000     GPS         TIME OF LAST OBS    
                                                            END OF HEADER       
 14 12 20  0  0 19.6540000  0  1G12
   -117007.637                1         63.750  
 14 12 20  0  0 20.6540000  0  1G12
   -116917.601         465.031          63.750  
 14 12 20  0  0 21.6540000  0  1G12
   -116828.711         930.544          63.750  
 14 12 20  0  0 22.6540000  0  1G12
   -116741.470        1396.194          63.750  
 14 12 20  0  0 23.6540000  0  1G12
   -116652.906        1862.356          63.750  
 14 12 20  0  0 24.6540000  0  1G12
   -116564.246        2328.954          63.750  
 14 12 20  0  0 25.6540000  0  3G12G25G 2
   -116475.016        2796.079          63.750  
   1055727.034      106221.332          63.750  
   2514759.612      109205.784          63.750  
 14 12 20  0  0 26.6540000  0  3G12G25G 2
   -116385.247        3263.346          63.750  
   1055342.057      104203.519          63.750  
   2514364.714      107165.015          63.750  
 14 12 20  0  0 27.6540000  0  3G12G25G 2
   -116296.040        3731.451          63.750  
   1054958.283      102186.424          63.750  
   2513978.265      105125.048          63.750  
 14 12 20  0  0 28.6540000  0  3G12G25G 2
   -116206.846        4200.490          63.750  
   1054572.520      100170.156          63.750  
   2513590.378      103085.985          63.750  
 14 12 20  0  0 29.6540000  0  3G12G25G 2
   -116116.856        4668.731          63.750  
   1054188.776       98152.978          63.750  
   2513202.875      101046.106          63.750  
 14 12 20  0  0 30.6540000  0  3G12G25G 2
   -116028.142        5137.544          63.750  
   1053805.774       96136.247          63.750  
   2512814.646       99006.753          63.750  
 14 12 20  0  0 31.6540000  0  3G12G25G 2
   -115939.871        5607.495          63.750  
   1053422.491       94120.520          63.750  
   2512426.967       96968.486          63.750  
 14 12 20  0  0 32.6540000  0  3G12G25G 2
   -115850.162        6077.859          63.750  
   1053039.385       92105.112          63.750  
   2512038.696       94930.618          63.750  
 14 12 20  0  0 33.6540000  0  3G12G25G 2
   -115761.010        6548.672          63.750  
   1052655.295       90090.028          63.750  
   2511651.367       92893.177          63.750  
 14 12 20  0  0 34.6540000  0  3G12G25G 2
   -115670.962        7020.437          63.750  
   1052272.024       88075.789          63.750  
   2511262.847       90856.653          63.750  
 14 12 20  0  0 35.6540000  0  3G12G25G 2
   -115581.604        7491.402          63.750  
   1051887.645       86060.620          63.750  
   2510875.572       88819.289          63.750  
 14 12 20  0  0 36.6540000  0  3G12G25G 2
   -115492.032        7962.554          63.750  
   1051504.055       84045.533          63.750  
   2510488.410       86782.085          63.750  
 14 12 20  0  0 37.6540000  0  3G12G25G 2
   -115401.431        8435.136          63.750  
   1051121.608       82031.755          63.750  
   2510100.017       84746.279          63.750  
 14 12 20  0  0 38.6540000  0  3G12G25G 2
   -115311.412        8908.500          63.750  
   1050739.277       80018.656          63.750  
   2509713.741       82711.226          63.750  
 14 12 20  0  0 39.6540000  0  3G12G25G 2
   -115220.815        9382.358          63.750  
   1050355.799       78005.920          63.750  
   2509325.734       80676.641          63.750  
 14 12 20  0  0 40.6540000  0  3G12G25G 2
   -115130.770        9857.026          63.750  
   1049972.709       75993.888          63.750  
   2508939.058       78642.833          63.750  
 14 12 20  0  0 41.6540000  0  3G12G25G 2
   -115039.401       10332.834          63.750  
   1049590.739       73982.877          63.750  
   2508553.364       76610.127          63.750  
 14 12 20  0  0 42.6540000  0  3G12G25G 2
   -114949.550       10809.507          63.750  
   1049206.795       71972.615          63.750  
   2508166.439       74578.270          63.750  
 14 12 20  0  0 43.6540000  0  3G12G25G 2
   -114857.846       11286.060          63.750  
   1048824.995       69962.116          63.750  
   2507779.274       72546.250          63.750  
 14 12 20  0  0 44.6540000  0  3G12G25G 2
   -114768.338       11763.254          63.750  
   1048441.472       67952.145          63.750  
   2507392.467       70514.845          63.750  
 14 12 20  0  0 45.6540000  0  3G12G25G 2
   -114677.006       12240.393          63.750  
   1048059.537       65942.009          63.750  
   2507006.484       68483.359          63.750  
 14 12 20  0  0 46.6540000  0  3G12G25G 2
   -114586.210       12717.930          63.750  
   1047677.379       63932.146          63.750  
   2506619.518       66452.235          63.750  
 14 12 20  0  0 47.6540000  0  3G12G25G 2
   -114495.776       13195.978          63.750  
   1047294.901       61922.686          63.750  
   2506233.658       64421.587          63.750  
 14 12 20  0  0 48.6540000  0  3G12G25G 2
   -114404.545       13674.057          63.750  
   1046912.129       59913.137          63.750  
   2505845.146       62390.948          63.750  
 14 12 20  0  0 49.6540000  0  3G12G25G 2
   -114314.107       14153.737          63.750  
   1046529.674       57905.074          63.750  
   2505460.443       60361.881          63.750  
 14 12 20  0  0 50.6540000  0  3G12G25G 2
   -114221.837       14635.565          63.750  
   1046148.274       55899.047          63.750  
   2505074.771       58334.931          63.750  
 14 12 20  0  0 51.6540000  0  3G12G25G 2
   -114130.689       15117.404          63.750  
   1045766.651       53892.921          63.750  
   2504687.722       56307.955          63.750  
 14 12 20  0  0 52.6540000  0  3G12G25G 2
   -114038.090       15599.761          63.750  
   1045384.140       51887.189          63.750  
   2504302.884       54281.474          63.750  
 14 12 20  0  0 53.6540000  0  3G12G25G 2
   -113947.127       16081.972          63.750  
   1045003.377       49881.192          63.750  
   2503917.386       52254.822          63.750  
 14 12 20  0  0 54.6540000  0  3G12G25G 2
   -113855.257       16564.588          63.750  
   1044622.054       47875.495          63.750  
   2503532.451       50228.534          63.750  
 14 12 20  0  0 55.6540000  0  3G12G25G 2
   -113762.900       17048.648          63.750  
   1044239.974       45871.127          63.750  
   2503147.029       48203.675          63.750  
 14 12 20  0  0 56.6540000  0  3G12G25G 2
   -113670.131       17532.714          63.750  
   1043859.454       43866.652          63.750  
   2502761.314       46178.777          63.750  
 14 12 20  0  0 57.6540000  0  3G12G25G 2
   -113578.463       18017.157          63.750  
   1043477.779       41862.432          63.750  
   2502376.234       44154.239          63.750  
 14 12 20  0  0 58.6540000  0  3G12G25G 2
   -113486.060       18501.833          63.750  
   1043095.747       39858.329          63.750  
   2501990.092       42129.900          63.750  
 14 12 20  0  0 59.6540000  0  3G12G25G 2
   -113393.839       18986.655          63.750  
   1042714.593       37854.264          63.750  
   2501604.589       40105.678          63.750  
 14 12 20  0  1  0.6540000  0  3G12G25G 2
   -113301.453       19471.705          63.750  
   1042333.069       35850.307          63.750  
   2501221.261       38081.655          63.750  
 14 12 20  0  1  1.6540000  0  3G12G25G 2
   -113208.311       19957.356          63.750  
   1041951.677       33846.838          63.750  
   2500834.915       36058.207          63.750  
 14 12 20  0  1  2.6540000  0  3G12G25G 2
   -113116.148       20443.239          63.750  
   1041570.795       31843.495          63.750  
   2500450.401       34034.965          63.750  
 14 12 20  0  1  3.6540000  0  3G12G25G 2
   -113023.433       20929.961          63.750  
   1041189.938       29840.864          63.750  
   2500066.386       32012.521          63.750  
 14 12 20  0  1  4.6540000  0  3G12G25G 2
   -112930.543       21417.221          63.750  
   1040808.437       27838.660          63.750  
   2499680.983       29990.599          63.750  
 14 12 20  0  1  5.6540000  0  3G12G25G 2
   -112838.510       21906.872          63.750  
   1040428.032       25838.735          63.750  
   2499297.196       27971.032          63.750  
 14 12 20  0  1  6.6540000  0  3G12G25G 2
   -112743.444       22396.410          63.750  
   1040047.680       23838.581          63.750  
   2498911.546       25951.325          63.750  
 14 12 20  0  1  7.6540000  0  3G12G25G 2
   -112651.063       22886.186          63.750  
   1039666.077       21838.552          63.750  
   2498528.017       23931.830          63.750  
 14 12 20  0  1  8.6540000  0  3G12G25G 2
   -112557.813       23377.939          63.750  
   1039286.744       19840.393          63.750  
   2498144.085       21914.287          63.750  
 14 12 20  0  1  9.6540000  0  3G12G25G 2
   -112464.567       23868.920          63.750  
   1038906.434       17841.339          63.750  
   2497760.051       19895.939          63.750  
 14 12 20  0  1 10.6540000  0  3G12G25G 2
   -112371.073       24359.639          63.750  
   1038525.433       15841.910          63.750  
   2497376.238       17877.297          63.750  
 14 12 20  0  1 11.6540000  0  3G12G25G 2
   -112277.698       24850.469          63.750  
   1038145.697       13842.471          63.750  
   2496991.437       15858.748          63.750  
 14 12 20  0  1 12.6540000  0  3G12G25G 2
   -112183.791       25341.327          63.750  
   1037764.590       11842.963          63.750  
   2496607.843       13840.196          63.750  
 14 12 20  0  1 13.6540000  0  4G12G25G 2G24
   -112090.778       25832.809          63.750  
   1037384.637        9843.951          63.750  
   2496223.444       11822.237          63.750  
   1254724.294      110680.680          63.750  
 14 12 20  0  1 14.6540000  0  4G12G25G 2G24
   -111997.229       26324.694          63.750  
   1037003.623        7845.229          63.750  
   2495840.474        9804.654          63.750  
   1255237.229      113379.805          63.750  
 14 12 20  0  1 15.6540000  0  4G12G25G 2G24
   -111903.393       26816.491          63.750  
   1036623.904        5846.320          63.750  
   2495456.229        7786.967          63.750  
   1255751.258      116078.854          63.750  
 14 12 20  0  1 16.6540000  0  4G12G25G 2G24
   -111809.890       27309.094          63.750  
   1036243.148        3848.082          63.750  
   2495071.981        5770.042          63.750  
   1256263.920      118778.688          63.750  
 14 12 20  0  1 17.6540000  0  4G12G25G 2G24
   -111716.394       27802.213          63.750  
   1035863.592        1850.256          63.750  
   2494687.897        3753.616          63.750  
   1256776.990      121479.053          63.750  
 14 12 20  0  1 18.6540000  0  4G12G25G 2G24
   -111622.297       28295.768          63.750  
   1035482.767        -147.248          63.750  
   2494304.827        1737.599          63.750  
   1257291.426      124179.866          63.750  
 14 12 20  0  1 19.6540000  0  7G12G29G25G 2G24G 6G14
   -111527.420       28790.307          63.750  
   3519259.298       81827.395          63.750  
   1035102.928       -2143.876          63.750  
   2493921.417        -277.469          63.750  
   1257806.585      126881.656          63.750  
   2300993.613       10903.439          63.750  
   2399368.188       79824.941          63.750  
 14 12 20  0  1 20.6540000  0  7G12G29G25G 2G24G 6G14
   -111433.372       29286.021          63.750  
   3518589.039       78297.529          63.750  
   1034723.405       -4139.450          63.750  
   2493537.562       -2291.385          63.750  
   1258320.615      129584.620          63.750  
   2301021.884       11052.442          63.750  
   2399421.692       80115.694          63.750  
 14 12 20  0  1 21.6540000  0  7G12G29G25G 2G24G 6G14
   -111339.322       29782.052          63.750  
   3517919.019       74767.703          63.750  
   1034343.016       -6134.822          63.750  
   2493154.623       -4305.012          63.750  
   1258835.034      132287.894          63.750  
   2301051.244       11201.990          63.750  
   2399478.552       80406.963          63.750  
 14 12 20  0  1 22.6540000  0  7G12G29G25G 2G24G 6G14
   -111245.467       30277.894          63.750  
   3517248.296       71237.456          63.750  
   1033964.492       -8130.487          63.750  
   2492772.390       -6318.853          63.750  
   1259348.998      134990.988          63.750  
   2301080.786       11351.604          63.750  
   2399533.158       80698.279          63.750  
 14 12 20  0  1 23.6540000  0  7G12G29G25G 2G24G 6G14
   -111150.793       30774.130          63.750  
   3516575.174       67707.292          63.750  
   1033584.414      -10125.880          63.750  
   2492388.904       -8332.325          63.750  
   1259863.479      137694.480          63.750  
   2301108.155       11501.848          63.750  
   2399590.630       80990.182          63.750  
 14 12 20  0  1 24.6540000  0  7G12G29G25G 2G24G 6G14
   -111056.199       31271.313          63.750  
   3515903.298       64177.820          63.750  
   1033204.699      -12120.438          63.750  
   2492004.835      -10344.879          63.750  
   1260376.892      140398.923          63.750  
   2301135.727       11653.271          63.750  
   2399643.905       81283.247          63.750  
 14 12 20  0  1 25.6540000  0  7G12G29G25G 2G24G 6G14
   -110961.757       31769.570          63.750  
   3515233.295       60649.139          63.750  
   1032824.970      -14114.033          63.750  
   2491622.114      -12356.386          63.750  
   1260892.634      143104.431          63.750  
   2301166.290       11806.006          63.750  
   2399699.513       81577.600          63.750  
 14 12 20  0  1 26.6540000  0  7G12G29G25G 2G24G 6G14
   -110866.596       32267.632          63.750  
   3514558.683       57119.993          63.750  
   1032446.206      -16107.941          63.750  
   2491240.165      -14368.116          63.750  
   1261408.001      145809.753          63.750  
   2301196.503       11958.768          63.750  
   2399757.390       81871.966          63.750  
 14 12 20  0  1 27.6540000  0  7G12G29G25G 2G24G 6G14
   -110771.887       32766.596          63.750  
   3513888.129       53591.483          63.750  
   1032066.826      -18101.055          63.750  
   2490857.583      -16378.968          63.750  
   1261921.831      148515.975          63.750  
   2301223.492       12112.686          63.750  
   2399811.751       82167.452          63.750  
 14 12 20  0  1 28.6540000  0  7G12G29G25G 2G24G 6G14
   -110676.587       33266.479          63.750  
   3513218.008       50063.613          63.750  
   1031686.850      -20093.367          63.750  
   2490475.105      -18388.927          63.750  
   1262438.125      151223.111          63.750  
   2301255.189       12267.749          63.750  
   2399869.710       82464.063          63.750  
 14 12 20  0  1 29.6540000  0  7G12G29G25G 2G24G 6G14
   -110581.547       33768.164          63.750  
   3512545.370       46537.278          63.750  
   1031308.056      -22083.990          63.750  
   2490092.829      -20397.111          63.750  
   1262952.937      153932.057          63.750  
   2301284.184       12424.853          63.750  
   2399925.596       82762.687          63.750  
 14 12 20  0  1 30.6540000  0  7G12G29G25G 2G24G 6G14
   -110485.508       34269.718          63.750  
   3511876.399       43010.535          63.750  
   1030930.384      -24074.852          63.750  
   2489710.601      -22405.457          63.750  
   1263467.842      156640.874          63.750  
   2301313.959       12582.060          63.750  
   2399981.227       83061.393          63.750  
 14 12 20  0  1 31.6540000  0  7G12G29G25G 2G24G 6G14
   -110390.063       34771.737          63.750  
   3511203.824       39483.988          63.750  
   1030551.310      -26065.366          63.750  
   2489328.211      -24413.353          63.750  
   1263984.104      159350.158          63.750  
   2301344.903       12739.974          63.750  
   2400040.744       83360.771          63.750  
 14 12 20  0  1 32.6540000  0  7G12G29G25G 2G24G 6G14
   -110294.811       35274.290          63.750  
   3510532.968       35957.701          63.750  
   1030171.918      -28055.459          63.750  
   2488945.787      -26420.740          63.750  
   1264500.103      162059.971          63.750  
   2301375.737       12898.657          63.750  
   2400098.056       83660.900          63.750  
 14 12 20  0  1 33.6540000  0  7G12G29G25G 2G24G 6G14
   -110198.716       35776.629          63.750  
   3509862.236       32430.936          63.750  
   1029793.042      -30045.875          63.750  
   2488564.622      -28428.381          63.750  
   1265015.481      164769.573          63.750  
   2301404.972       13057.352          63.750  
   2400154.308       83961.017          63.750  
 14 12 20  0  1 34.6540000  0  7G12G29G25G 2G24G 6G14
   -110103.014       36278.831          63.750  
   3509189.508       28903.746          63.750  
   1029414.897      -32036.541          63.750  
   2488181.819      -30436.173          63.750  
   1265530.809      167479.040          63.750  
   2301436.407       13216.155          63.750  
   2400211.544       84261.211          63.750  
 14 12 20  0  1 35.6540000  0  7G12G29G25G 2G24G 6G14
   -110008.199       36781.062          63.750  
   3508519.438       25376.322          63.750  
   1029035.896      -34027.303          63.750  
   2487800.842      -32443.963          63.750  
   1266046.851      170188.531          63.750  
   2301464.661       13375.222          63.750  
   2400270.592       84561.646          63.750  
 14 12 20  0  1 36.6540000  0  7G12G29G25G 2G24G 6G14
   -109911.989       37283.381          63.750  
   3507849.574       21848.729          63.750  
   1028657.440      -36018.074          63.750  
   2487418.279      -34451.698          63.750  
   1266561.940      172898.119          63.750  
   2301497.053       13534.609          63.750  
   2400325.784       84862.380          63.750  
 14 12 20  0  1 37.6540000  0  7G12G29G25G 2G24G 6G14
   -109816.227       37785.294          63.750  
   3507175.094       18320.432          63.750  
   1028278.375      -38009.377          63.750  
   2487035.882      -36459.861          63.750  
   1267078.506      175607.292          63.750  
   2301526.962       13693.825          63.750  
   2400382.124       85162.918          63.750  
 14 12 20  0  1 38.6540000  0  7G12G29G25G 2G24G 6G14
   -109720.645       38287.573          63.750  
   3506506.927       14792.245          63.750  
   1027898.636      -40000.427          63.750  
   2486654.487      -38467.680          63.750  
   1267593.076      178316.840          63.750  
   2301557.063       13853.654          63.750  
   2400441.553       85464.040          63.750  
 14 12 20  0  1 39.6540000  0  7G12G29G25G 2G24G 6G14
   -109624.779       38791.079          63.750  
   3505833.896       11265.018          63.750  
   1027520.477      -41990.352          63.750  
   2486272.249      -40474.297          63.750  
   1268109.481      181027.612          63.750  
   2301586.822       14014.943          63.750  
   2400497.377       85766.595          63.750  
 14 12 20  0  1 40.6540000  0  7G12G29G25G 2G24G 6G14
   -109529.175       39294.366          63.750  
   3505162.499        7737.291          63.750  
   1027141.910      -43980.621          63.750  
   2485889.727      -42481.162          63.750  
   1268625.160      183738.167          63.750  
   2301616.910       14176.240          63.750  
   2400555.950       86069.136          63.750  
 14 12 20  0  1 41.6540000  0  7G12G29G25G 2G24G 6G14
   -109433.266       39798.298          63.750  
   3504491.951        4209.942          63.750  
   1026763.184      -45970.342          63.750  
   2485509.061      -44487.408          63.750  
   1269141.170      186449.365          63.750  
   2301647.836       14338.428          63.750  
   2400613.149       86372.543          63.750  
 14 12 20  0  1 42.6540000  0  7G12G29G25G 2G24G 6G14
   -109337.365       40302.214          63.750  
   3503820.100         682.308          63.750  
   1026384.560      -47960.202          63.750  
   2485126.032      -46493.693          63.750  
   1269656.299      189160.550          63.750  
   2301679.034       14500.832          63.750  
   2400671.620       86676.141          63.750  
 14 12 20  0  1 43.6540000  0  7G12G29G25G 2G24G 6G14
   -109240.741       40806.305          63.750  
   3503150.165       -2845.437          63.750  
   1026005.515      -49949.995          63.750  
   2484745.527      -48499.828          63.750  
   1270173.179      191871.902          63.750  
   2301710.043       14663.644          63.750  
   2400729.050       86980.121          63.750  
 14 12 20  0  1 44.6540000  0  7G12G29G25G 2G24G 6G14
   -109145.523       41311.016          63.750  
   3502477.798       -6372.821          63.750  
   1025628.214      -51939.288          63.750  
   2484363.132      -50505.366          63.750  
   1270689.426      194583.876          63.750  
   2301739.962       14827.312          63.750  
   2400786.570       87284.928          63.750  
 14 12 20  0  1 45.6540000  0  7G12G29G25G 2G24G 6G14
   -109048.657       41816.957          63.750  
   3501807.171       -9899.229          63.750  
   1025249.433      -53927.454          63.750  
   2483980.513      -52509.699          63.750  
   1271205.098      197297.092          63.750  
   2301772.602       14992.456          63.750  
   2400845.182       87591.189          63.750  
 14 12 20  0  1 46.6540000  0  7G12G29G25G 2G24G 6G14
   -108952.399       42323.519          63.750  
   3501135.197      -13425.311          63.750  
   1024870.383      -55915.112          63.750  
   2483600.599      -54513.432          63.750  
   1271721.775      200010.925          63.750  
   2301805.315       15158.449          63.750  
   2400902.638       87898.278          63.750  
 14 12 20  0  1 47.6540000  0  7G12G29G25G 2G24G 6G14
   -108856.233       42829.590          63.750  
   3500463.513      -16952.151          63.750  
   1024491.436      -57903.381          63.750  
   2483219.658      -56517.687          63.750  
   1272237.291      202724.259          63.750  
   2301836.298       15324.188          63.750  
   2400962.316       88205.082          63.750  
 14 12 20  0  1 48.6540000  0  7G12G29G25G 2G24G 6G14
   -108759.351       43337.416          63.750  
   3499794.222      -20477.492          63.750  
   1024114.238      -59890.004          63.750  
   2482838.809      -58520.210          63.750  
   1272754.858      205439.358          63.750  
   2301868.802       15491.921          63.750  
   2401021.035       88513.857          63.750  
 14 12 20  0  1 49.6540000  0  7G12G29G25G 2G24G 6G14
   -108663.135       43846.152          63.750  
   3499123.313      -24002.210          63.750  
   1023736.658      -61875.834          63.750  
   2482455.930      -60521.849          63.750  
   1273270.654      208155.361          63.750  
   2301900.151       15660.796          63.750  
   2401079.164       88823.748          63.750  
 14 12 20  0  1 50.6540000  0  7G12G29G25G 2G24G 6G14
   -108565.435       44354.266          63.750  
   3498449.267      -27527.824          63.750  
   1023358.370      -63862.389          63.750  
   2482076.695      -62524.132          63.750  
   1273788.467      210870.736          63.750  
   2301931.779       15829.291          63.750  
   2401138.268       89133.227          63.750  
 14 12 20  0  1 51.6540000  0  7G12G29G25G 2G24G 6G14
   -108469.587       44863.889          63.750  
   3497782.829      -31052.188          63.750  
   1022980.238      -65847.549          63.750  
   2481694.674      -64524.933          63.750  
   1274304.793      213587.626          63.750  
   2301966.209       15999.526          63.750  
   2401197.492       89444.434          63.750  
 14 12 20  0  1 52.6540000  0  7G12G29G25G 2G24G 6G14
   -108371.386       45374.455          63.750  
   3497111.422      -34575.877          63.750  
   1022604.332      -67831.880          63.750  
   2481313.456      -66524.806          63.750  
   1274822.657      216305.463          63.750  
   2301998.619       16170.946          63.750  
   2401256.213       89756.791          63.750  
 14 12 20  0  1 53.6540000  0  7G12G29G25G 2G24G 6G14
   -108274.455       45885.997          63.750  
   3496441.129      -38098.864          63.750  
   1022225.383      -69815.343          63.750  
   2480934.774      -68523.738          63.750  
   1275340.034      219024.272          63.750  
   2302029.618       16343.571          63.750  
   2401317.887       90070.334          63.750  
 14 12 20  0  1 54.6540000  0  7G12G29G25G 2G24G 6G14
   -108177.703       46397.404          63.750  
   3495770.126      -41622.251          63.750  
   1021847.938      -71799.062          63.750  
   2480554.323      -70522.824          63.750  
   1275856.953      221742.943          63.750  
   2302062.458       16516.304          63.750  
   2401376.138       90383.950          63.750  
 14 12 20  0  1 55.6540000  0  7G12G29G25G 2G24G 6G14
   -108079.940       46909.200          63.750  
   3495098.763      -45145.525          63.750  
   1021470.758      -73782.497          63.750  
   2480173.027      -72521.540          63.750  
   1276374.692      224462.009          63.750  
   2302095.240       16689.665          63.750  
   2401436.409       90698.177          63.750  
 14 12 20  0  1 56.6540000  0  7G12G29G25G 2G24G 6G14
   -107983.258       47420.534          63.750  
   3494428.863      -48669.544          63.750  
   1021093.295      -75766.511          63.750  
   2479792.787      -74520.746          63.750  
   1276891.833      227180.604          63.750  
   2302128.467       16862.790          63.750  
   2401496.422       91012.137          63.750  
 14 12 20  0  1 57.6540000  0  7G12G29G25G 2G24G 6G14
   -107885.068       47933.215          63.750  
   3493758.487      -52192.469          63.750  
   1020715.531      -77749.284          63.750  
   2479414.269      -76518.628          63.750  
   1277408.758      229900.550          63.750  
   2302160.894       17037.503          63.750  
   2401557.204       91327.665          63.750  
 14 12 20  0  1 58.6540000  0  7G12G29G25G 2G24G 6G14
   -107788.065       48446.955          63.750  
   3493088.509      -55714.613          63.750  
   1020339.034      -79731.116          63.750  
   2479032.327      -78515.479          63.750  
   1277927.340      232621.555          63.750  
   2302196.071       17213.513          63.750  
   2401616.108       91644.461          63.750  
 14 12 20  0  1 59.6540000  0  7G12G29G25G 2G24G 6G14
   -107690.941       48961.184          63.750  
   3492419.091      -59236.530          63.750  
   1019961.352      -81712.567          63.750  
   2478653.766      -80511.861          63.750  
   1278445.124      235343.044          63.750  
   2302231.368       17390.248          63.750  
   2401677.200       91961.953          63.750  
 14 12 20  0  2  0.6540000  0  7G12G29G25G 2G24G 6G14
   -107592.242       49476.201          63.750  
   3491747.092      -62757.944          63.750  
   1019584.867      -83693.346          63.750  
   2478273.046      -82507.479          63.750  
   1278963.221      238065.320          63.750  
   2302264.180       17568.005          63.750  
   2401736.708       92280.443          63.750  
 14 12 20  0  2  1.6540000  0  7G12G29G25G 2G24G 6G14
   -107493.806       49991.634          63.750  
   3491078.536      -66279.187          63.750  
   1019207.880      -85673.813          63.750  
   2477893.560      -84502.701          63.750  
   1279480.974      240788.021          63.750  
   2302297.396       17746.421          63.750  
   2401798.351       92599.572          63.750  
 14 12 20  0  2  2.6540000  0  7G12G29G25G 2G24G 6G14
   -107396.045       50507.407          63.750  
   3490407.611      -69800.376          63.750  
   1018831.027      -87654.053          63.750  
   2477513.756      -86497.618          63.750  
   1279999.586      243511.055          63.750  
   2302331.721       17925.410          63.750  
   2401860.059       92919.239          63.750  
 14 12 20  0  2  3.6540000  0  7G12G29G25G 2G24G 6G14
   -107298.123       51023.505          63.750  
   3489737.796      -73321.501          63.750  
   1018453.872      -89634.090          63.750  
   2477135.713      -88492.208          63.750  
   1280517.162      246234.413          63.750  
   2302366.166       18104.956          63.750  
   2401919.867       93239.447          63.750  
 14 12 20  0  2  4.6540000  0  7G12G29G25G 2G24G 6G14
   -107199.286       51539.788          63.750  
   3489069.084      -76842.720          63.750  
   1018076.970      -91614.036          63.750  
   2476753.370      -90486.671          63.750  
   1281035.819      248957.956          63.750  
   2302399.691       18284.927          63.750  
   2401981.998       93560.049          63.750  
 14 12 20  0  2  5.6540000  0  7G12G29G25G 2G24G 6G14
   -107101.608       52056.329          63.750  
   3488397.608      -80363.933          63.750  
   1017700.567      -93593.846          63.750  
   2476376.911      -92480.879          63.750  
   1281554.606      251681.755          63.750  
   2302432.517       18465.395          63.750  
   2402041.465       93881.124          63.750  
 14 12 20  0  2  6.6540000  0  7G12G29G25G 2G24G 6G14
   -107002.311       52573.541          63.750  
   3487727.727      -83884.768          63.750  
   1017324.168      -95573.096          63.750  
   2475995.896      -94474.431          63.750  
   1282073.184      254406.224          63.750  
   2302468.079       18646.765          63.750  
   2402104.022       94203.078          63.750  
 14 12 20  0  2  7.6540000  0  8G12G29G25G 2G24G 6G14G32
   -106903.548       53091.566          63.750  
   3487057.896      -87405.045          63.750  
   1016947.408      -97551.644          63.750  
   2475615.631      -96467.205          63.750  
   1282591.637      257131.507          63.750  
   2302502.433       18829.188          63.750  
   2402165.336       94526.059          63.750  
   5656369.697      102142.316          63.750  
 14 12 20  0  2  8.6540000  0  8G12G29G25G 2G24G 6G14G32
   -106804.985       53609.779          63.750  
   3486387.925      -90925.417          63.750  
   1016570.835      -99530.119          63.750  
   2475239.329      -98459.812          63.750  
   1283109.708      259856.973          63.750  
   2302538.358       19012.036          63.750  
   2402226.333       94849.429          63.750  
   5656683.072      103765.576          63.750  
 14 12 20  0  2  9.6540000  0  8G12G29G25G 2G24G 6G14G32
   -106706.719       54129.130          63.750  
   3485718.038      -94444.904          63.750  
   1016194.679     -101507.564          63.750  
   2474859.351     -100451.295          63.750  
   1283629.137      262583.582          63.750  
   2302574.579       19196.262          63.750  
   2402288.033       95174.154          63.750  
   5656992.236      105390.036          63.750  
 14 12 20  0  2 10.6540000  0  8G12G29G25G 2G24G 6G14G32
   -106607.417       54647.860          63.750  
   3485047.595      -97965.280          63.750  
   1015817.717     -103485.739          63.750  
   2474480.299     -102443.425          63.750  
   1284147.052      265309.564          63.750  
   2302608.074       19380.098          63.750  
   2402350.315       95498.473          63.750  
   5657300.284      107013.885          63.750  
 14 12 20  0  2 11.6540000  0  8G12G29G25G 2G24G 6G14G32
   -106508.853       55166.790          63.750  
   3484376.729     -101485.732          63.750  
   1015441.906     -105463.828          63.750  
   2474100.971     -104435.391          63.750  
   1284666.064      268035.743          63.750  
   2302643.689       19564.364          63.750  
   2402411.060       95823.200          63.750  
   5657608.511      108638.009          63.750  
 14 12 20  0  2 12.6540000  0  8G12G29G25G 2G24G 6G14G32
   -106409.799       55685.982          63.750  
   3483708.502     -105006.191          63.750  
   1015064.960     -107441.759          63.750  
   2473722.590     -106427.099          63.750  
   1285185.970      270762.188          63.750  
   2302678.303       19749.146          63.750  
   2402473.677       96148.398          63.750  
   5657918.727      110262.441          63.750  
 14 12 20  0  2 13.6540000  0  8G12G29G25G 2G24G 6G14G32
   -106310.399       56206.272          63.750  
   3483039.669     -108525.809          63.750  
   1014689.111     -109418.713          63.750  
   2473341.133     -108417.747          63.750  
   1285703.906      273489.726          63.750  
   2302712.930       19935.259          63.750  
   2402536.218       96474.909          63.750  
   5658223.854      111888.021          63.750  
 14 12 20  0  2 14.6540000  0  8G12G29G25G 2G24G 6G14G32
   -106211.441       56726.751          63.750  
   3482367.924     -112045.533          63.750  
   1014314.271     -111395.586          63.750  
   2472961.149     -110408.218          63.750  
   1286223.435      276217.454          63.750  
   2302748.935       20121.784          63.750  
   2402597.701       96801.811          63.750  
   5658533.809      113513.843          63.750  
 14 12 20  0  2 15.6540000  0  8G12G29G25G 2G24G 6G14G32
   -106113.131       57247.613          63.750  
   3481697.454     -115565.108          63.750  
   1013935.797     -113372.178          63.750  
   2472586.188     -112398.331          63.750  
   1286742.058      278945.572          63.750  
   2302783.074       20308.940          63.750  
   2402659.771       97129.324          63.750  
   5658843.896      115140.111          63.750  
 14 12 20  0  2 16.6540000  0  8G12G29G25G 2G24G 6G14G32
   -106013.052       57768.669          63.750  
   3481028.568     -119084.785          63.750  
   1013560.174     -115348.703          63.750  
   2472206.622     -114388.266          63.750  
   1287261.839      281673.861          63.750  
   2302821.651       20496.526          63.750  
   2402722.498       97457.229          63.750  
   5659152.771      116766.614          63.750  
 14 12 20  0  2 17.6540000  0  8G12G29G25G 2G24G 6G14G32
   -105915.850       58290.233          63.750  
   3480360.959     -122604.199          63.750  
   1013184.364     -117324.825          63.750  
   2471829.291     -116377.711          63.750  
   1287781.670      284402.672          63.750  
   2302856.686       20684.850          63.750  
   2402784.878       97785.848          63.750  
   5659463.823      118393.659          63.750  
 14 12 20  0  2 18.6540000  0  8G12G29G25G 2G24G 6G14G32
   -105815.626       58812.556          63.750  
   3479689.562     -126123.144          63.750  
   1012809.364     -119300.293          63.750  
   2471449.476     -118366.419          63.750  
   1288300.235      287132.235          63.750  
   2302892.364       20874.169          63.750  
   2402847.849       98115.446          63.750  
   5659771.699      120021.536          63.750  
 14 12 20  0  2 19.6540000  0  8G12G29G25G 2G24G 6G14G32
   -105716.401       59335.982          63.750  
   3479020.072     -129641.253          63.750  
   1012432.420     -121274.771          63.750  
   2471072.651     -120354.061          63.750  
   1288819.413      289862.901          63.750  
   2302929.989       21064.836          63.750  
   2402910.252       98446.351          63.750  
   5660080.912      121650.553          63.750  
 14 12 20  0  2 20.6540000  0  8G12G29G25G 2G24G 6G14G32
   -105616.560       59858.880          63.750  
   3478351.296     -133160.155          63.750  
   1012057.381     -123249.891          63.750  
   2470693.644     -122342.259          63.750  
   1289339.373      292593.038          63.750  
   2302963.790       21255.207          63.750  
   2402972.941       98776.942          63.750  
   5660391.320      123279.108          63.750  
 14 12 20  0  2 21.6540000  0  8G12G29G25G 2G24G 6G14G32
   -105516.995       60382.062          63.750  
   3477680.594     -136679.037          63.750  
   1011681.065     -125224.841          63.750  
   2470314.948     -124330.175          63.750  
   1289858.704      295323.460          63.750  
   2303000.231       21446.104          63.750  
   2403037.688       99108.030          63.750  
   5660704.264      124907.993          63.750  
 14 12 20  0  2 22.6540000  0  8G12G29G25G 2G24G 6G14G32
   -105417.252       60905.487          63.750  
   3477012.298     -140197.945          63.750  
   1011306.124     -127199.652          63.750  
   2469937.300     -126317.871          63.750  
   1290378.623      298054.125          63.750  
   2303036.836       21637.477          63.750  
   2403099.789       99439.567          63.750  
   5661013.089      126537.159          63.750  
 14 12 20  0  2 23.6540000  0  8G12G29G25G 2G24G 6G14G32
   -105317.255       61429.461          63.750  
   3476343.652     -143716.575          63.750  
   1010929.198     -129174.034          63.750  
   2469558.908     -128305.037          63.750  
   1290898.374      300785.324          63.750  
   2303074.480       21829.633          63.750  
   2403161.972       99771.864          63.750  
   5661323.946      128166.923          63.750  
 14 12 20  0  2 24.6540000  0  8G12G29G25G 2G24G 6G14G32
   -105217.427       61953.910          63.750  
   3475673.334     -147234.989          63.750  
   1010554.835     -131148.035          63.750  
   2469179.525     -130291.764          63.750  
   1291418.554      303517.003          63.750  
   2303111.611       22022.507          63.750  
   2403226.488      100104.852          63.750  
   5661634.289      129797.219          63.750  
 14 12 20  0  2 25.6540000  0  8G12G29G25G 2G24G 6G14G32
   -105118.148       62478.710          63.750  
   3475002.220     -150753.327          63.750  
   1010177.864     -133121.800          63.750  
   2468802.865     -132278.149          63.750  
   1291938.258      306249.039          63.750  
   2303146.913       22215.971          63.750  
   2403290.686      100438.399          63.750  
   5661943.817      131427.914          63.750  
 14 12 20  0  2 26.6540000  0  8G12G29G25G 2G24G 6G14G32
   -105017.679       63003.668          63.750  
   3474333.262     -154271.772          63.750  
   1009803.324     -135095.531          63.750  
   2468423.521     -134264.396          63.750  
   1292457.938      308981.218          63.750  
   2303185.600       22409.813          63.750  
   2403354.012      100772.314          63.750  
   5662253.831      133058.813          63.750  
 14 12 20  0  2 27.6540000  0  8G12G29G25G 2G24G 6G14G32
   -104917.127       63529.311          63.750  
   3473664.644     -157789.804          63.750  
   1009427.506     -137068.673          63.750  
   2468047.639     -136249.988          63.750  
   1292978.218      311714.086          63.750  
   2303220.716       22604.596          63.750  
   2403416.460      101107.130          63.750  
   5662563.154      134690.465          63.750  
 14 12 20  0  2 28.6540000  0  8G12G29G25G 2G24G 6G14G32
   -104816.773       64056.145          63.750  
   3472995.940     -161306.909          63.750  
   1009052.510     -139040.736          63.750  
   2467668.990     -138234.411          63.750  
   1293498.644      314448.145          63.750  
   2303258.542       22800.800          63.750  
   2403480.919      101443.343          63.750  
   5662875.127      136323.352          63.750  
 14 12 20  0  2 29.6540000  0  8G12G29G25G 2G24G 6G14G32
   -104717.409       64583.412          63.750  
   3472324.575     -164823.838          63.750  
   1008676.581     -141012.491          63.750  
   2467291.249     -140218.396          63.750  
   1294017.803      317182.636          63.750  
   2303295.232       22997.671          63.750  
   2403546.011      101780.199          63.750  
   5663186.660      137956.710          63.750  
 14 12 20  0  2 30.6540000  0  8G12G29G25G 2G24G 6G14G32
   -104616.698       65111.151          63.750  
   3471657.605     -168340.588          63.750  
   1008302.261     -142983.874          63.750  
   2466913.696     -142201.957          63.750  
   1294539.884      319917.589          63.750  
   2303333.881       23195.250          63.750  
   2403610.049      102117.732          63.750  
   5663495.628      139590.597          63.750  
 14 12 20  0  2 31.6540000  0  8G12G29G25G 2G24G 6G14G32
   -104515.851       65639.048          63.750  
   3470986.736     -171857.418          63.750  
   1007926.673     -144955.207          63.750  
   2466537.392     -144185.368          63.750  
   1295059.764      322652.704          63.750  
   2303373.507       23393.226          63.750  
   2403672.833      102455.648          63.750  
   5663807.613      141224.697          63.750  
 14 12 20  0  2 32.6540000  0  8G12G29G25G 2G24G 6G14G32
   -104416.011       66167.636          63.750  
   3470318.718     -175373.841          63.750  
   1007551.477     -146925.962          63.750  
   2466159.329     -146168.109          63.750  
   1295579.821      325388.503          63.750  
   2303410.831       23592.132          63.750  
   2403737.957      102794.460          63.750  
   5664118.484      142859.524          63.750  
 14 12 20  0  2 33.6540000  0  8G12G29G25G 2G24G 6G14G32
   -104315.926       66696.258          63.750  
   3469646.920     -178890.502          63.750  
   1007176.600     -148896.798          63.750  
   2465781.288     -148150.841          63.750  
   1296101.321      328124.335          63.750  
   2303447.450       23791.305          63.750  
   2403803.008      103133.509          63.750  
   5664430.974      144494.436          63.750  
 14 12 20  0  2 34.6540000  0  8G12G29G25G 2G24G 6G14G32
   -104214.517       67226.058          63.750  
   3468978.487     -182406.238          63.750  
   1006802.717     -150866.553          63.750  
   2465403.919     -150132.418          63.750  
   1296621.175      330861.348          63.750  
   2303485.069       23991.900          63.750  
   2403868.023      103473.956          63.750  
   5664741.965      146130.598          63.750  
 14 12 20  0  2 35.6540000  0  8G12G29G25G 2G24G 6G14G32
   -104113.445       67756.526          63.750  
   3468313.012     -185921.578          63.750  
   1006425.914     -152835.754          63.750  
   2465029.867     -152113.344          63.750  
   1297143.360      333599.025          63.750  
   2303523.786       24193.396          63.750  
   2403932.223      103815.284          63.750  
   5665050.366      147767.465          63.750  
 14 12 20  0  2 36.6540000  0  8G12G29G25G 2G24G 6G14G32
   -104012.796       68287.436          63.750  
   3467642.510     -189436.753          63.750  
   1006052.796     -154804.623          63.750  
   2464651.132     -154093.854          63.750  
   1297662.758      336337.133          63.750  
   2303562.506       24395.565          63.750  
   2403999.224      104157.257          63.750  
   5665364.919      149404.809          63.750  
 14 12 20  0  2 37.6540000  0  9G12G29G25G 2G24G 6G14G32G15
   -103911.066       68818.792          63.750  
   3466972.466     -192951.728          63.750  
   1005678.719     -156773.160          63.750  
   2464272.887     -156073.931          63.750  
   1298184.338      339075.693          63.750  
   2303602.005       24598.428          63.750  
   2404062.309      104499.885          63.750  
   5665676.427      151042.678          63.750  
   -107676.975       11263.347          63.750  
 14 12 20  0  2 38.6540000  0  9G12G29G25G 2G24G 6G14G32G15
   -103809.623       69350.854          63.750  
   3466306.092     -196466.282          63.750  
   1005303.896     -158741.099          63.750  
   2463895.340     -158053.326          63.750  
   1298706.632      341814.953          63.750  
   2303640.192       24802.227          63.750  
   2404128.525      104843.431          63.750  
   5665985.107      152681.284          63.750  
   -107609.535       12795.351          63.750  
 14 12 20  0  2 39.6540000  0  9G12G29G25G 2G24G 6G14G32G15
   -103708.071       69882.644          63.750  
   3465636.579     -199981.364          63.750  
   1004928.440     -160709.431          63.750  
   2463522.544     -160032.994          63.750  
   1299227.382      344553.941          63.750  
   2303678.550       25005.989          63.750  
   2404193.474      105186.921          63.750  
   5666299.569      154319.651          63.750  
   -107526.063       14327.137          63.750  
 14 12 20  0  2 40.6540000  0  9G12G29G25G 2G24G 6G14G32G15
   -103607.132       70415.475          63.750  
   3464965.067     -203495.669          63.750  
   1004554.743     -162676.811          63.750  
   2463143.808     -162011.677          63.750  
   1299749.102      347293.967          63.750  
   2303716.869       25211.037          63.750  
   2404259.286      105531.662          63.750  
   5666610.727      155959.130          63.750  
   -107472.166       15860.061          63.750  
 14 12 20  0  2 41.6540000  0  9G12G29G25G 2G24G 6G14G32G15
   -103505.432       70948.138          63.750  
   3464297.959     -207010.411          63.750  
   1004179.618     -164644.482          63.750  
   2462767.443     -163990.510          63.750  
   1300270.349      350033.823          63.750  
   2303755.271       25416.156          63.750  
   2404324.545      105876.445          63.750  
   5666923.564      157598.487          63.750  
   -107306.732       17392.646          63.750  
 14 12 20  0  2 42.6540000  0  9G12G29G25G 2G24G 6G14G32G15
   -103405.282       71481.678          63.750  
   3463629.147     -210524.560          63.750  
   1003805.656     -166611.389          63.750  
   2462391.309     -165968.500          63.750  
   1300791.851      352774.540          63.750  
   2303796.662       25622.374          63.750  
   2404389.832      106222.310          63.750  
   5667234.765      159238.763          63.750  
   -107201.877       18926.222          63.750  
 14 12 20  0  2 43.6540000  0  9G12G29G25G 2G24G 6G14G32G15
   -103303.370       72015.773          63.750  
   3462960.332     -214038.400          63.750  
   1003432.141     -168577.841          63.750  
   2462015.091     -167945.963          63.750  
   1301313.591      355515.829          63.750  
   2303835.588       25829.399          63.750  
   2404456.013      106568.948          63.750  
   5667547.550      160879.649          63.750  
   -107101.879       20460.291          63.750  
 14 12 20  0  2 44.6540000  0  9G12G29G25G 2G24G 6G14G32G15
   -103201.629       72550.826          63.750  
   3462290.885     -217551.552          63.750  
   1003056.995     -170543.452          63.750  
   2461639.875     -169922.471          63.750  
   1301834.596      358258.065          63.750  
   2303876.317       26037.610          63.750  
   2404522.140      106916.751          63.750  
   5667860.554      162521.555          63.750  
   -107000.956       21995.333          63.750  
 14 12 20  0  2 45.6540000  0  9G12G29G25G 2G24G 6G14G32G15
   -103099.593       73087.030          63.750  
   3461622.649     -221063.830          63.750  
   1002683.052     -172508.011          63.750  
   2461263.098     -171897.878          63.750  
   1302356.358      361001.448          63.750  
   2303914.358       26247.214          63.750  
   2404589.216      107265.919          63.750  
   5668173.632      164164.644          63.750  
   -106911.550       23531.569          63.750  
 14 12 20  0  2 46.6540000  0  9G12G29G25G 2G24G 6G14G32G15
   -102997.088       73623.819          63.750  
   3460952.611     -224575.782          63.750  
   1002310.601     -174472.101          63.750  
   2460885.099     -173872.699          63.750  
   1302879.886      363745.407          63.750  
   2303953.706       26457.634          63.750  
   2404655.519      107615.876          63.750  
   5668483.374      165808.369          63.750  
   -106786.050       25068.377          63.750  
 14 12 20  0  2 47.6540000  0  9G12G29G25G 2G24G 6G14G32G15
   -102894.598       74161.626          63.750  
   3460288.566     -228086.977          63.750  
   1001935.957     -176435.284          63.750  
   2460512.497     -175846.502          63.750  
   1303401.420      366490.389          63.750  
   2303995.574       26669.315          63.750  
   2404722.745      107967.072          63.750  
   5668800.071      167453.158          63.750  
   -106687.593       26606.147          63.750  
 14 12 20  0  2 48.6540000  0  9G12G29G25G 2G24G 6G14G32G15
   -102791.150       74699.473          63.750  
   3459616.567     -231598.398          63.750  
   1001562.874     -178398.533          63.750  
   2460135.283     -177820.311          63.750  
   1303924.472      369235.408          63.750  
   2304036.368       26881.275          63.750  
   2404789.104      108318.510          63.750  
   5669111.246      169098.043          63.750  
   -106591.603       28144.000          63.750  
 14 12 20  0  2 49.6540000  0  9G12G29G25G 2G24G 6G14G32G15
   -102689.444       75237.448          63.750  
   3458949.862     -235109.968          63.750  
   1001189.285     -180361.769          63.750  
   2459760.001     -179793.997          63.750  
   1304446.229      371980.552          63.750  
   2304075.353       27093.591          63.750  
   2404856.245      108670.287          63.750  
   5669425.606      170743.098          63.750  
   -106490.242       29681.972          63.750  
 14 12 20  0  2 50.6540000  0  9G12G29G25G 2G24G 6G14G32G15
   -102587.112       75775.811          63.750  
   3458282.314     -238621.408          63.750  
   1000815.169     -182324.715          63.750  
   2459384.196     -181767.334          63.750  
   1304968.938      374726.076          63.750  
   2304116.532       27306.540          63.750  
   2404923.296      109022.665          63.750  
   5669737.875      172388.596          63.750  
   -106392.276       31220.322          63.750  
 14 12 20  0  2 51.6540000  0  9G12G29G25G 2G24G 6G14G32G15
   -102484.319       76314.514          63.750  
   3457611.697     -242132.772          63.750  
   1000442.576     -184287.458          63.750  
   2459008.583     -183740.311          63.750  
   1305491.861      377471.936          63.750  
   2304156.234       27520.060          63.750  
   2404990.556      109375.591          63.750  
   5670049.580      174034.479          63.750  
   -106293.358       32759.023          63.750  
 14 12 20  0  2 52.6540000  0  9G12G29G25G 2G24G 6G14G32G15
   -102381.885       76853.798          63.750  
   3456947.127     -245643.822          63.750  
   1000068.914     -186249.704          63.750  
   2458633.867     -185712.742          63.750  
   1306014.036      380218.378          63.750  
   2304196.691       27734.403          63.750  
   2405057.330      109729.317          63.750  
   5670363.573      175681.003          63.750  
   -106187.546       34298.305          63.750  
 14 12 20  0  2 53.6540000  0  9G12G29G25G 2G24G 6G14G32G15
   -102279.956       77393.461          63.750  
   3456276.386     -249154.763          63.750  
    999695.218     -188211.683          63.750  
   2458258.989     -187684.832          63.750  
   1306536.612      382965.195          63.750  
   2304240.302       27949.362          63.750  
   2405124.972      110083.624          63.750  
   5670678.280      177327.932          63.750  
   -106082.148       35837.964          63.750  
 14 12 20  0  2 54.6540000  0  9G12G29G25G 2G24G 6G14G32G15
   -102177.161       77933.577          63.750  
   3455608.455     -252665.509          63.750  
    999323.145     -190173.316          63.750  
   2457884.795     -189656.471          63.750  
   1307059.559      385712.460          63.750  
   2304280.114       28165.014          63.750  
   2405193.773      110438.592          63.750  
   5670994.643      178975.378          63.750  
   -105977.476       37378.091          63.750  
 14 12 20  0  2 55.6540000  0  9G12G29G25G 2G24G 6G14G32G15
   -102073.822       78474.899          63.750  
   3454940.094     -256175.322          63.750  
    998949.633     -192133.865          63.750  
   2457508.812     -191626.919          63.750  
   1307582.722      388460.930          63.750  
   2304320.844       28382.105          63.750  
   2405260.770      110794.985          63.750  
   5671303.429      180624.070          63.750  
   -105878.385       38919.400          63.750  
 14 12 20  0  2 56.6540000  0  9G12G29G25G 2G24G 6G14G32G15
   -101970.536       79015.766          63.750  
   3454275.312     -259685.848          63.750  
    998575.880     -194094.972          63.750  
   2457132.427     -193597.839          63.750  
   1308105.063      391208.940          63.750  
   2304361.244       28598.979          63.750  
   2405328.030      111151.131          63.750  
   5671618.604      182272.365          63.750  
   -105770.275       40460.263          63.750  
 14 12 20  0  2 57.6540000  0  9G12G29G25G 2G24G 6G14G32G15
   -101867.696       79557.333          63.750  
   3453605.204     -263195.939          63.750  
    998203.124     -196055.471          63.750  
   2456758.302     -195568.114          63.750  
   1308628.619      393957.651          63.750  
   2304404.572       28816.793          63.750  
   2405396.787      111508.183          63.750  
   5671932.951      183921.409          63.750  
   -105667.409       42001.850          63.750  
 14 12 20  0  2 58.6540000  0  9G12G29G25G 2G24G 6G14G32G15
   -101764.387       80099.525          63.750  
   3452939.018     -266705.683          63.750  
    997830.104     -198015.468          63.750  
   2456383.449     -197537.760          63.750  
   1309151.545      396706.976          63.750  
   2304445.917       29035.467          63.750  
   2405463.810      111866.080          63.750  
   5672245.039      185571.115          63.750  
   -105560.329       43544.016          63.750  
 14 12 20  0  2 59.6540000  0  9G12G29G25G 2G24G 6G14G32G15
   -101660.450       80641.415          63.750  
   3452268.904     -270215.980          63.750  
    997456.707     -199975.889          63.750  
   2456008.597     -199507.690          63.750  
   1309674.774      399455.993          63.750  
   2304488.640       29254.072          63.750  
   2405532.055      112223.880          63.750  
   5672560.944      187220.571          63.750  
   -105455.796       45085.932          63.750  
 14 12 20  0  3  0.6540000  0  9G12G29G25G 2G24G 6G14G32G15
   -101557.970       81183.491          63.750  
   3451604.147     -273726.355          63.750  
    997083.786     -201936.207          63.750  
   2455633.796     -201477.502          63.750  
   1310197.976      402205.198          63.750  
   2304528.947       29473.104          63.750  
   2405600.804      112582.077          63.750  
   5672874.013      188870.269          63.750  
   -105361.290       46627.991          63.750  
 14 12 20  0  3  1.6540000  0  9G12G29G25G 2G24G 6G14G32G15
   -101455.010       81726.071          63.750  
   3450933.438     -277236.500          63.750  
    996710.443     -203896.149          63.750  
   2455259.060     -203446.811          63.750  
   1310721.101      404954.905          63.750  
   2304569.929       29692.875          63.750  
   2405670.466      112940.987          63.750  
   5673188.357      190520.515          63.750  
   -105257.454       48170.600          63.750  
 14 12 20  0  3  2.6540000  0  9G12G29G25G 2G24G 6G14G32G15
   -101351.850       82270.134          63.750  
   3450265.820     -280745.427          63.750  
    996338.312     -205854.716          63.750  
   2454885.519     -205414.618          63.750  
   1311244.874      407706.089          63.750  
   2304613.479       29914.374          63.750  
   2405737.798      113301.600          63.750  
   5673501.676      192172.286          63.750  
   -105154.764       49714.642          63.750  
 14 12 20  0  3  3.6540000  0  9G12G29G25G 2G24G 6G14G32G15
   -101248.345       82815.401          63.750  
   3449598.532     -284253.416          63.750  
    995965.067     -207812.183          63.750  
   2454509.414     -207381.283          63.750  
   1311768.451      410458.474          63.750  
   2304655.301       30137.312          63.750  
   2405806.475      113663.616          63.750  
   5673816.629      193825.317          63.750  
   -105053.519       51259.895          63.750  
 14 12 20  0  3  4.6540000  0  9G12G29G25G 2G24G 6G14G32G15
   -101143.834       83361.035          63.750  
   3448931.418     -287761.290          63.750  
    995592.647     -209769.387          63.750  
   2454136.348     -209347.599          63.750  
   1312292.415      413211.218          63.750  
   2304697.812       30360.847          63.750  
   2405875.362      114026.211          63.750  
   5674131.216      195478.760          63.750  
   -104948.289       52805.557          63.750  
 14 12 20  0  3  5.6540000  0  9G12G29G25G 2G24G 6G14G32G15
   -101040.027       83907.166          63.750  
   3448264.272     -291268.943          63.750  
    995221.322     -211726.211          63.750  
   2453762.766     -211313.420          63.750  
   1312816.241      415964.454          63.750  
   2304738.855       30585.117          63.750  
   2405946.021      114389.513          63.750  
   5674447.194      197132.746          63.750  
   -104837.103       54351.680          63.750  
 14 12 20  0  3  6.6540000  0  9G12G29G25G 2G24G 6G14G32G15
   -100935.729       84452.608          63.750  
   3447595.729     -294777.537          63.750  
    994848.518     -213683.824          63.750  
   2453388.657     -213279.948          63.750  
   1313340.931      418717.005          63.750  
   2304781.983       30808.943          63.750  
   2406013.482      114752.345          63.750  
   5674759.792      198786.089          63.750  
   -104736.754       55897.142          63.750  
 14 12 20  0  3  7.6540000  0  9G12G29G25G 2G24G 6G14G32G15
   -100832.128       84998.939          63.750  
