     2.10           OBSERVATION DATA    G (GPS)             RINEX VERSION / TYPE
GOGEO               M.KREJ              20231107 170315 UTC PGM / RUN BY / DATE 
COMMENT1                                                    COMMENT             
MARKER1                                                     MARKER NAME         
                                                            MARKER NUMBER       
MKREJ               INNOVA                                  OBSERVER / AGENCY   
RCV1                                                        REC # / TYPE / VERS 
ANT1                                                        ANT # / TYPE        
  3642325.0000  1411093.3420  5025370.3360                  APPROX POSITION XYZ 
        0.0000        0.0000        0.0000                  ANTENNA: DELTA H/E/N
     1     1                                                WAVELENGTH FACT L1/2
     3    C1    L1    S1                                    # / TYPES OF OBSERV 
     1.000                                                  INTERVAL            
  2023    10    24    16    37   27.6240000     GPS         TIME OF FIRST OBS   
  2023    10    24    16    37   27.6240000     GPS         TIME OF LAST OBS    
                                                            END OF HEADER       
 23 10 24 16 37 27.6240000  0  0
 23 10 24 16 37 28.6240000  0  0
 23 10 24 16 37 29.6240000  0  0
 23 10 24 16 37 30.6240000  0  0
 23 10 24 16 37 31.6240000  0  0
 23 10 24 16 37 32.6240000  0  0
 23 10 24 16 37 33.6240000  0  0
 23 10 24 16 37 34.6240000  0  0
 23 10 24 16 37 35.6240000  0  0
 23 10 24 16 37 36.6240000  0  0
 23 10 24 16 37 37.6240000  0  0
 23 10 24 16 37 38.6240000  0  0
 23 10 24 16 37 39.6240000  0  0
 23 10 24 16 37 40.6240000  0  0
 23 10 24 16 37 41.6240000  0  0
 23 10 24 16 37 42.6240000  0  0
 23 10 24 16 37 43.6240000  0  0
 23 10 24 16 37 44.6240000  0  0
 23 10 24 16 37 45.6240000  0  0
 23 10 24 16 37 46.6240000  0  0
 23 10 24 16 37 47.6240000  0  0
 23 10 24 16 37 48.6240000  0  0
 23 10 24 16 37 49.6240000  0  0
 23 10 24 16 37 50.6240000  0  0
 23 10 24 16 37 51.6240000  0  0
 23 10 24 16 37 52.6240000  0  0
 23 10 24 16 37 53.6240000  0  0
 23 10 24 16 37 54.6240000  0  0
 23 10 24 16 37 55.6240000  0  0
 23 10 24 16 37 56.6240000  0  0
 23 10 24 16 37 57.6240000  0  0
 23 10 24 16 37 58.6240000  0  0
 23 10 24 16 37 59.6240000  0  0
 23 10 24 16 38  0.6240000  0  0
 23 10 24 16 38  1.6240000  0  0
 23 10 24 16 38  2.6240000  0  0
 23 10 24 16 38  3.6240000  0  0
 23 10 24 16 38  4.6240000  0  0
 23 10 24 16 38  5.6240000  0  0
 23 10 24 16 38  6.6240000  0  0
 23 10 24 16 38  7.6240000  0  0
 23 10 24 16 38  8.6240000  0  0
 23 10 24 16 38  9.6240000  0  0
 23 10 24 16 38 10.6240000  0  0
 23 10 24 16 38 11.6240000  0  0
 23 10 24 16 38 12.6240000  0  0
 23 10 24 16 38 13.6240000  0  0
 23 10 24 16 38 14.6240000  0  0
 23 10 24 16 38 15.6240000  0  0
 23 10 24 16 38 16.6240000  0  0
 23 10 24 16 38 17.6240000  0  0
 23 10 24 16 38 18.6240000  0  0
 23 10 24 16 38 19.6240000  0  0
 23 10 24 16 38 20.6240000  0  0
 23 10 24 16 38 21.6240000  0  0
 23 10 24 16 38 22.6240000  0  0
 23 10 24 16 38 23.6240000  0  0
 23 10 24 16 38 24.6240000  0  0
 23 10 24 16 38 25.6240000  0  0
 23 10 24 16 38 26.6240000  0  0
 23 10 24 16 38 27.6240000  0  0
 23 10 24 16 38 28.6240000  0  0
 23 10 24 16 38 29.6240000  0  0
 23 10 24 16 38 30.6240000  0  0
 23 10 24 16 38 31.6240000  0  0
 23 10 24 16 38 32.6240000  0  0
 23 10 24 16 38 33.6240000  0  0
 23 10 24 16 38 34.6240000  0  0
 23 10 24 16 38 35.6240000  0  0
 23 10 24 16 38 36.6240000  0  0
 23 10 24 16 38 37.6240000  0  0
 23 10 24 16 38 38.6240000  0  0
 23 10 24 16 38 39.6240000  0  0
 23 10 24 16 38 40.6240000  0  0
 23 10 24 16 38 41.6240000  0  0
 23 10 24 16 38 42.6240000  0  0
 23 10 24 16 38 43.6240000  0  0
 23 10 24 16 38 44.6240000  0  0
 23 10 24 16 38 45.6240000  0  0
 23 10 24 16 38 46.6240000  0  0
 23 10 24 16 38 47.6240000  0  0
 23 10 24 16 38 48.6240000  0  0
 23 10 24 16 38 49.6240000  0  0
 23 10 24 16 38 50.6240000  0  0
 23 10 24 16 38 51.6240000  0  0
 23 10 24 16 38 52.6240000  0  0
 23 10 24 16 38 53.6240000  0  0
 23 10 24 16 38 54.6240000  0  0
 23 10 24 16 38 55.6240000  0  0
 23 10 24 16 38 56.6240000  0  0
 23 10 24 16 38 57.6240000  0  0
 23 10 24 16 38 58.6240000  0  0
 23 10 24 16 38 59.6240000  0  0
 23 10 24 16 39  0.6240000  0  0
 23 10 24 16 39  1.6240000  0  0
 23 10 24 16 39  2.6240000  0  0
 23 10 24 16 39  3.6240000  0  0
 23 10 24 16 39  4.6240000  0  0
 23 10 24 16 39  5.6240000  0  0
 23 10 24 16 39  6.6240000  0  0
 23 10 24 16 39  7.6240000  0  0
 23 10 24 16 39  8.6240000  0  0
 23 10 24 16 39  9.6240000  0  0
 23 10 24 16 39 10.6240000  0  0
 23 10 24 16 39 11.6240000  0  0
 23 10 24 16 39 12.6240000  0  0
 23 10 24 16 39 13.6240000  0  0
 23 10 24 16 39 14.6240000  0  0
 23 10 24 16 39 15.6240000  0  0
 23 10 24 16 39 16.6240000  0  0
 23 10 24 16 39 17.6240000  0  0
 23 10 24 16 39 18.6240000  0  0
 23 10 24 16 39 19.6240000  0  0
 23 10 24 16 39 20.6240000  0  0
 23 10 24 16 39 21.6240000  0  0
 23 10 24 16 39 22.6240000  0  0
 23 10 24 16 39 23.6240000  0  0
 23 10 24 16 39 24.6240000  0  0
 23 10 24 16 39 25.6240000  0  0
 23 10 24 16 39 26.6240000  0  0
 23 10 24 16 39 27.6240000  0  0
 23 10 24 16 39 28.6240000  0  0
 23 10 24 16 39 29.6240000  0  0
 23 10 24 16 39 30.6240000  0  0
 23 10 24 16 39 31.6240000  0  0
 23 10 24 16 39 32.6240000  0  0
 23 10 24 16 39 33.6240000  0  0
 23 10 24 16 39 34.6240000  0  0
 23 10 24 16 39 35.6240000  0  0
 23 10 24 16 39 36.6240000  0  0
 23 10 24 16 39 37.6240000  0  0
 23 10 24 16 39 38.6240000  0  0
 23 10 24 16 39 39.6240000  0  0
 23 10 24 16 39 40.6240000  0  0
 23 10 24 16 39 41.6240000  0  0
 23 10 24 16 39 42.6240000  0  0
 23 10 24 16 39 43.6240000  0  0
 23 10 24 16 39 44.6240000  0  0
 23 10 24 16 39 45.6240000  0  0
 23 10 24 16 39 46.6240000  0  0
 23 10 24 16 39 47.6240000  0  0
 23 10 24 16 39 48.6240000  0  0
 23 10 24 16 39 49.6240000  0  0
 23 10 24 16 39 50.6240000  0  0
 23 10 24 16 39 51.6240000  0  0
 23 10 24 16 39 52.6240000  0  0
 23 10 24 16 39 53.6240000  0  0
 23 10 24 16 39 54.6240000  0  0
 23 10 24 16 39 55.6240000  0  0
 23 10 24 16 39 56.6240000  0  0
 23 10 24 16 39 57.6240000  0  0
 23 10 24 16 39 58.6240000  0  0
 23 10 24 16 39 59.6240000  0  0
 23 10 24 16 40  0.6240000  0  0
 23 10 24 16 40  1.6240000  0  0
 23 10 24 16 40  2.6240000  0  0
 23 10 24 16 40  3.6240000  0  0
 23 10 24 16 40  4.6240000  0  0
 23 10 24 16 40  5.6240000  0  0
 23 10 24 16 40  6.6240000  0  0
 23 10 24 16 40  7.6240000  0  0
 23 10 24 16 40  8.6240000  0  0
 23 10 24 16 40  9.6240000  0  0
 23 10 24 16 40 10.6240000  0  0
 23 10 24 16 40 11.6240000  0  0
 23 10 24 16 40 12.6240000  0  0
 23 10 24 16 40 13.6240000  0  0
 23 10 24 16 40 14.6240000  0  0
 23 10 24 16 40 15.6240000  0  0
 23 10 24 16 40 16.6240000  0  0
 23 10 24 16 40 17.6240000  0  0
 23 10 24 16 40 18.6240000  0  0
 23 10 24 16 40 19.6240000  0  0
 23 10 24 16 40 20.6240000  0  0
 23 10 24 16 40 21.6240000  0  0
 23 10 24 16 40 22.6240000  0  0
 23 10 24 16 40 23.6240000  0  0
 23 10 24 16 40 24.6240000  0  0
 23 10 24 16 40 25.6240000  0  0
 23 10 24 16 40 26.6240000  0  0
 23 10 24 16 40 27.6240000  0  0
 23 10 24 16 40 28.6240000  0  0
 23 10 24 16 40 29.6240000  0  0
 23 10 24 16 40 30.6240000  0  0
 23 10 24 16 40 31.6240000  0  0
 23 10 24 16 40 32.6240000  0  0
 23 10 24 16 40 33.6240000  0  0
 23 10 24 16 40 34.6240000  0  0
 23 10 24 16 40 35.6240000  0  0
 23 10 24 16 40 36.6240000  0  0
 23 10 24 16 40 37.6240000  0  0
 23 10 24 16 40 38.6240000  0  0
 23 10 24 16 40 39.6240000  0  0
 23 10 24 16 40 40.6240000  0  0
 23 10 24 16 40 41.6240000  0  0
 23 10 24 16 40 42.6240000  0  0
 23 10 24 16 40 43.6240000  0  0
 23 10 24 16 40 44.6240000  0  0
 23 10 24 16 40 45.6240000  0  0
 23 10 24 16 40 46.6240000  0  0
 23 10 24 16 40 47.6240000  0  0
 23 10 24 16 40 48.6240000  0  0
 23 10 24 16 40 49.6240000  0  0
 23 10 24 16 40 50.6240000  0  0
 23 10 24 16 40 51.6240000  0  0
 23 10 24 16 40 52.6240000  0  0
 23 10 24 16 40 53.6240000  0  0
 23 10 24 16 40 54.6240000  0  0
 23 10 24 16 40 55.6240000  0  0
 23 10 24 16 40 56.6240000  0  0
 23 10 24 16 40 57.6240000  0  0
 23 10 24 16 40 58.6240000  0  0
 23 10 24 16 40 59.6240000  0  0
 23 10 24 16 41  0.6240000  0  0
 23 10 24 16 41  1.6240000  0  0
 23 10 24 16 41  2.6240000  0  0
 23 10 24 16 41  3.6240000  0  0
 23 10 24 16 41  4.6240000  0  0
 23 10 24 16 41  5.6240000  0  0
 23 10 24 16 41  6.6240000  0  0
 23 10 24 16 41  7.6240000  0  0
 23 10 24 16 41  8.6240000  0  0
 23 10 24 16 41  9.6240000  0  0
 23 10 24 16 41 10.6240000  0  0
 23 10 24 16 41 11.6240000  0  0
 23 10 24 16 41 12.6240000  0  0
 23 10 24 16 41 13.6240000  0  0
 23 10 24 16 41 14.6240000  0  0
 23 10 24 16 41 15.6240000  0  0
 23 10 24 16 41 16.6240000  0  0
 23 10 24 16 41 17.6240000  0  0
 23 10 24 16 41 18.6240000  0  0
 23 10 24 16 41 19.6240000  0  0
 23 10 24 16 41 20.6240000  0  0
 23 10 24 16 41 21.6240000  0  0
 23 10 24 16 41 22.6240000  0  0
 23 10 24 16 41 23.6240000  0  0
 23 10 24 16 41 24.6240000  0  0
 23 10 24 16 41 25.6240000  0  0
 23 10 24 16 41 26.6240000  0  0
 23 10 24 16 41 27.6240000  0  0
 23 10 24 16 41 28.6240000  0  0
 23 10 24 16 41 29.6240000  0  0
 23 10 24 16 41 30.6240000  0  0
 23 10 24 16 41 31.6240000  0  0
 23 10 24 16 41 32.6240000  0  0
 23 10 24 16 41 33.6240000  0  0
 23 10 24 16 41 34.6240000  0  0
 23 10 24 16 41 35.6240000  0  0
 23 10 24 16 41 36.6240000  0  0
 23 10 24 16 41 37.6240000  0  0
 23 10 24 16 41 38.6240000  0  0
 23 10 24 16 41 39.6240000  0  0
 23 10 24 16 41 40.6240000  0  0
 23 10 24 16 41 41.6240000  0  0
 23 10 24 16 41 42.6240000  0  0
 23 10 24 16 41 43.6240000  0  0
 23 10 24 16 41 44.6240000  0  0
 23 10 24 16 41 45.6240000  0  0
 23 10 24 16 41 46.6240000  0  0
 23 10 24 16 41 47.6240000  0  0
 23 10 24 16 41 48.6240000  0  0
 23 10 24 16 41 49.6240000  0  0
 23 10 24 16 41 50.6240000  0  0
 23 10 24 16 41 51.6240000  0  0
 23 10 24 16 41 52.6240000  0  0
 23 10 24 16 41 53.6240000  0  0
 23 10 24 16 41 54.6240000  0  0
 23 10 24 16 41 55.6240000  0  0
 23 10 24 16 41 56.6240000  0  0
 23 10 24 16 41 57.6240000  0  0
 23 10 24 16 41 58.6240000  0  0
 23 10 24 16 41 59.6240000  0  0
 23 10 24 16 42  0.6240000  0  0
 23 10 24 16 42  1.6240000  0  0
 23 10 24 16 42  2.6240000  0  0
 23 10 24 16 42  3.6240000  0  0
 23 10 24 16 42  4.6240000  0  0
 23 10 24 16 42  5.6240000  0  0
 23 10 24 16 42  6.6240000  0  0
 23 10 24 16 42  7.6240000  0  0
 23 10 24 16 42  8.6240000  0  0
 23 10 24 16 42  9.6240000  0  0
 23 10 24 16 42 10.6240000  0  0
 23 10 24 16 42 11.6240000  0  0
 23 10 24 16 42 12.6240000  0  0
 23 10 24 16 42 13.6240000  0  0
 23 10 24 16 42 14.6240000  0  0
 23 10 24 16 42 15.6240000  0  0
 23 10 24 16 42 16.6240000  0  0
 23 10 24 16 42 17.6240000  0  0
 23 10 24 16 42 18.6240000  0  0
 23 10 24 16 42 19.6240000  0  0
 23 10 24 16 42 20.6240000  0  0
 23 10 24 16 42 21.6240000  0  0
 23 10 24 16 42 22.6240000  0  0
 23 10 24 16 42 23.6240000  0  0
 23 10 24 16 42 24.6240000  0  0
 23 10 24 16 42 25.6240000  0  0
 23 10 24 16 42 26.6240000  0  0
 23 10 24 16 42 27.6240000  0  0
 23 10 24 16 42 28.6240000  0  0
 23 10 24 16 42 29.6240000  0  0
 23 10 24 16 42 30.6240000  0  0
 23 10 24 16 42 31.6240000  0  0
 23 10 24 16 42 32.6240000  0  0
 23 10 24 16 42 33.6240000  0  0
 23 10 24 16 42 34.6240000  0  0
 23 10 24 16 42 35.6240000  0  0
 23 10 24 16 42 36.6240000  0  0
 23 10 24 16 42 37.6240000  0  0
 23 10 24 16 42 38.6240000  0  0
 23 10 24 16 42 39.6240000  0  0
 23 10 24 16 42 40.6240000  0  0
 23 10 24 16 42 41.6240000  0  0
 23 10 24 16 42 42.6240000  0  0
 23 10 24 16 42 43.6240000  0  0
 23 10 24 16 42 44.6240000  0  0
 23 10 24 16 42 45.6240000  0  0
 23 10 24 16 42 46.6240000  0  0
 23 10 24 16 42 47.6240000  0  0
 23 10 24 16 42 48.6240000  0  0
 23 10 24 16 42 49.6240000  0  0
 23 10 24 16 42 50.6240000  0  0
 23 10 24 16 42 51.6240000  0  0
 23 10 24 16 42 52.6240000  0  0
 23 10 24 16 42 53.6240000  0  0
 23 10 24 16 42 54.6240000  0  0
 23 10 24 16 42 55.6240000  0  0
 23 10 24 16 42 56.6240000  0  0
 23 10 24 16 42 57.6240000  0  0
 23 10 24 16 42 58.6240000  0  0
 23 10 24 16 42 59.6240000  0  0
 23 10 24 16 43  0.6240000  0  0
 23 10 24 16 43  1.6240000  0  0
 23 10 24 16 43  2.6240000  0  0
 23 10 24 16 43  3.6240000  0  0
 23 10 24 16 43  4.6240000  0  0
 23 10 24 16 43  5.6240000  0  0
 23 10 24 16 43  6.6240000  0  0
 23 10 24 16 43  7.6240000  0  0
 23 10 24 16 43  8.6240000  0  0
 23 10 24 16 43  9.6240000  0  0
 23 10 24 16 43 10.6240000  0  0
 23 10 24 16 43 11.6240000  0  0
 23 10 24 16 43 12.6240000  0  0
 23 10 24 16 43 13.6240000  0  0
 23 10 24 16 43 14.6240000  0  0
 23 10 24 16 43 15.6240000  0  0
 23 10 24 16 43 16.6240000  0  0
 23 10 24 16 43 17.6240000  0  0
 23 10 24 16 43 18.6240000  0  0
 23 10 24 16 43 19.6240000  0  0
 23 10 24 16 43 20.6240000  0  0
 23 10 24 16 43 21.6240000  0  0
 23 10 24 16 43 22.6240000  0  0
 23 10 24 16 43 23.6240000  0  0
 23 10 24 16 43 24.6240000  0  0
 23 10 24 16 43 25.6240000  0  0
 23 10 24 16 43 26.6240000  0  0
 23 10 24 16 43 27.6240000  0  0
 23 10 24 16 43 28.6240000  0  0
 23 10 24 16 43 29.6240000  0  0
 23 10 24 16 43 30.6240000  0  0
 23 10 24 16 43 31.6240000  0  0
 23 10 24 16 43 32.6240000  0  0
 23 10 24 16 43 33.6240000  0  0
 23 10 24 16 43 34.6240000  0  0
 23 10 24 16 43 35.6240000  0  0
 23 10 24 16 43 36.6240000  0  0
 23 10 24 16 43 37.6240000  0  0
 23 10 24 16 43 38.6240000  0  0
 23 10 24 16 43 39.6240000  0  0
 23 10 24 16 43 40.6240000  0  0
 23 10 24 16 43 41.6240000  0  0
 23 10 24 16 43 42.6240000  0  0
 23 10 24 16 43 43.6240000  0  0
 23 10 24 16 43 44.6240000  0  0
 23 10 24 16 43 45.6240000  0  0
 23 10 24 16 43 46.6240000  0  0
 23 10 24 16 43 47.6240000  0  0
 23 10 24 16 43 48.6240000  0  0
 23 10 24 16 43 49.6240000  0  0
 23 10 24 16 43 50.6240000  0  0
 23 10 24 16 43 51.6240000  0  0
 23 10 24 16 43 52.6240000  0  0
 23 10 24 16 43 53.6240000  0  0
 23 10 24 16 43 54.6240000  0  0
 23 10 24 16 43 55.6240000  0  0
 23 10 24 16 43 56.6240000  0  0
 23 10 24 16 43 57.6240000  0  0
 23 10 24 16 43 58.6240000  0  0
 23 10 24 16 43 59.6240000  0  0
 23 10 24 16 44  0.6240000  0  0
 23 10 24 16 44  1.6240000  0  0
 23 10 24 16 44  2.6240000  0  0
 23 10 24 16 44  3.6240000  0  0
 23 10 24 16 44  4.6240000  0  0
 23 10 24 16 44  5.6240000  0  0
 23 10 24 16 44  6.6240000  0  0
 23 10 24 16 44  7.6240000  0  0
 23 10 24 16 44  8.6240000  0  0
 23 10 24 16 44  9.6240000  0  0
 23 10 24 16 44 10.6240000  0  0
 23 10 24 16 44 11.6240000  0  0
 23 10 24 16 44 12.6240000  0  0
 23 10 24 16 44 13.6240000  0  0
 23 10 24 16 44 14.6240000  0  0
 23 10 24 16 44 15.6240000  0  0
 23 10 24 16 44 16.6240000  0  0
 23 10 24 16 44 17.6240000  0  0
 23 10 24 16 44 18.6240000  0  0
 23 10 24 16 44 19.6240000  0  0
 23 10 24 16 44 20.6240000  0  0
 23 10 24 16 44 21.6240000  0  0
 23 10 24 16 44 22.6240000  0  0
 23 10 24 16 44 23.6240000  0  0
 23 10 24 16 44 24.6240000  0  0
 23 10 24 16 44 25.6240000  0  0
 23 10 24 16 44 26.6240000  0  0
 23 10 24 16 44 27.6240000  0  0
 23 10 24 16 44 28.6240000  0  0
 23 10 24 16 44 29.6240000  0  0
 23 10 24 16 44 30.6240000  0  0
 23 10 24 16 44 31.6240000  0  0
 23 10 24 16 44 32.6240000  0  0
 23 10 24 16 44 33.6240000  0  0
 23 10 24 16 44 34.6240000  0  0
 23 10 24 16 44 35.6240000  0  0
 23 10 24 16 44 36.6240000  0  0
 23 10 24 16 44 37.6240000  0  0
 23 10 24 16 44 38.6240000  0  0
 23 10 24 16 44 39.6240000  0  0
 23 10 24 16 44 40.6240000  0  0
 23 10 24 16 44 41.6240000  0  0
 23 10 24 16 44 42.6240000  0  0
 23 10 24 16 44 43.6240000  0  0
 23 10 24 16 44 44.6240000  0  0
 23 10 24 16 44 45.6240000  0  0
 23 10 24 16 44 46.6240000  0  0
 23 10 24 16 44 47.6240000  0  0
 23 10 24 16 44 48.6240000  0  0
 23 10 24 16 44 49.6240000  0  0
 23 10 24 16 44 50.6240000  0  0
 23 10 24 16 44 51.6240000  0  0
 23 10 24 16 44 52.6240000  0  0
 23 10 24 16 44 53.6240000  0  0
 23 10 24 16 44 54.6240000  0  0
 23 10 24 16 44 55.6240000  0  0
 23 10 24 16 44 56.6240000  0  0
 23 10 24 16 44 57.6240000  0  0
 23 10 24 16 44 58.6240000  0  0
 23 10 24 16 44 59.6240000  0  0
 23 10 24 16 45  0.6240000  0  0
 23 10 24 16 45  1.6240000  0  0
 23 10 24 16 45  2.6240000  0  0
 23 10 24 16 45  3.6240000  0  0
 23 10 24 16 45  4.6240000  0  0
 23 10 24 16 45  5.6240000  0  0
 23 10 24 16 45  6.6240000  0  0
 23 10 24 16 45  7.6240000  0  0
 23 10 24 16 45  8.6240000  0  0
 23 10 24 16 45  9.6240000  0  0
 23 10 24 16 45 10.6240000  0  0
 23 10 24 16 45 11.6240000  0  0
 23 10 24 16 45 12.6240000  0  0
 23 10 24 16 45 13.6240000  0  0
 23 10 24 16 45 14.6240000  0  0
 23 10 24 16 45 15.6240000  0  0
 23 10 24 16 45 16.6240000  0  0
 23 10 24 16 45 17.6240000  0  0
 23 10 24 16 45 18.6240000  0  0
 23 10 24 16 45 19.6240000  0  0
 23 10 24 16 45 20.6240000  0  0
 23 10 24 16 45 21.6240000  0  0
 23 10 24 16 45 22.6240000  0  0
 23 10 24 16 45 23.6240000  0  0
 23 10 24 16 45 24.6240000  0  0
 23 10 24 16 45 25.6240000  0  0
 23 10 24 16 45 26.6240000  0  0
 23 10 24 16 45 27.6240000  0  0
 23 10 24 16 45 28.6240000  0  0
 23 10 24 16 45 29.6240000  0  0
 23 10 24 16 45 30.6240000  0  0
 23 10 24 16 45 31.6240000  0  0
 23 10 24 16 45 32.6240000  0  0
 23 10 24 16 45 33.6240000  0  0
 23 10 24 16 45 34.6240000  0  0
 23 10 24 16 45 35.6240000  0  0
 23 10 24 16 45 36.6240000  0  0
 23 10 24 16 45 37.6240000  0  0
 23 10 24 16 45 38.6240000  0  0
 23 10 24 16 45 39.6240000  0  0
 23 10 24 16 45 40.6240000  0  0
 23 10 24 16 45 41.6240000  0  0
 23 10 24 16 45 42.6240000  0  0
 23 10 24 16 45 43.6240000  0  0
 23 10 24 16 45 44.6240000  0  0
 23 10 24 16 45 45.6240000  0  0
 23 10 24 16 45 46.6240000  0  0
 23 10 24 16 45 47.6240000  0  0
 23 10 24 16 45 48.6240000  0  0
 23 10 24 16 45 49.6240000  0  0
 23 10 24 16 45 50.6240000  0  0
 23 10 24 16 45 51.6240000  0  0
 23 10 24 16 45 52.6240000  0  0
 23 10 24 16 45 53.6240000  0  0
 23 10 24 16 45 54.6240000  0  0
 23 10 24 16 45 55.6240000  0  0
 23 10 24 16 45 56.6240000  0  0
 23 10 24 16 45 57.6240000  0  0
 23 10 24 16 45 58.6240000  0  0
 23 10 24 16 45 59.6240000  0  0
 23 10 24 16 46  0.6240000  0  0
 23 10 24 16 46  1.6240000  0  0
 23 10 24 16 46  2.6240000  0  0
 23 10 24 16 46  3.6240000  0  0
 23 10 24 16 46  4.6240000  0  0
 23 10 24 16 46  5.6240000  0  0
 23 10 24 16 46  6.6240000  0  0
 23 10 24 16 46  7.6240000  0  0
 23 10 24 16 46  8.6240000  0  0
 23 10 24 16 46  9.6240000  0  0
 23 10 24 16 46 10.6240000  0  0
 23 10 24 16 46 11.6240000  0  0
 23 10 24 16 46 12.6240000  0  0
 23 10 24 16 46 13.6240000  0  0
 23 10 24 16 46 14.6240000  0  0
 23 10 24 16 46 15.6240000  0  0
 23 10 24 16 46 16.6240000  0  0
 23 10 24 16 46 17.6240000  0  0
 23 10 24 16 46 18.6240000  0  0
 23 10 24 16 46 19.6240000  0  0
 23 10 24 16 46 20.6240000  0  0
 23 10 24 16 46 21.6240000  0  0
 23 10 24 16 46 22.6240000  0  0
 23 10 24 16 46 23.6240000  0  0
 23 10 24 16 46 24.6240000  0  0
 23 10 24 16 46 25.6240000  0  0
 23 10 24 16 46 26.6240000  0  0
 23 10 24 16 46 27.6240000  0  0
 23 10 24 16 46 28.6240000  0  0
 23 10 24 16 46 29.6240000  0  0
 23 10 24 16 46 30.6240000  0  0
 23 10 24 16 46 31.6240000  0  0
 23 10 24 16 46 32.6240000  0  0
 23 10 24 16 46 33.6240000  0  0
 23 10 24 16 46 34.6240000  0  0
 23 10 24 16 46 35.6240000  0  0
 23 10 24 16 46 36.6240000  0  0
 23 10 24 16 46 37.6240000  0  0
 23 10 24 16 46 38.6240000  0  0
 23 10 24 16 46 39.6240000  0  0
 23 10 24 16 46 40.6240000  0  0
 23 10 24 16 46 41.6240000  0  0
 23 10 24 16 46 42.6240000  0  0
 23 10 24 16 46 43.6240000  0  0
 23 10 24 16 46 44.6240000  0  0
 23 10 24 16 46 45.6240000  0  0
 23 10 24 16 46 46.6240000  0  0
 23 10 24 16 46 47.6240000  0  0
 23 10 24 16 46 48.6240000  0  0
 23 10 24 16 46 49.6240000  0  0
 23 10 24 16 46 50.6240000  0  0
 23 10 24 16 46 51.6240000  0  0
 23 10 24 16 46 52.6240000  0  0
 23 10 24 16 46 53.6240000  0  0
 23 10 24 16 46 54.6240000  0  0
 23 10 24 16 46 55.6240000  0  0
 23 10 24 16 46 56.6240000  0  0
 23 10 24 16 46 57.6240000  0  0
 23 10 24 16 46 58.6240000  0  0
 23 10 24 16 46 59.6240000  0  0
 23 10 24 16 47  0.6240000  0  0
 23 10 24 16 47  1.6240000  0  0
 23 10 24 16 47  2.6240000  0  0
 23 10 24 16 47  3.6240000  0  0
 23 10 24 16 47  4.6240000  0  0
 23 10 24 16 47  5.6240000  0  0
 23 10 24 16 47  6.6240000  0  0
 23 10 24 16 47  7.6240000  0  0
 23 10 24 16 47  8.6240000  0  0
 23 10 24 16 47  9.6240000  0  0
 23 10 24 16 47 10.6240000  0  0
 23 10 24 16 47 11.6240000  0  0
 23 10 24 16 47 12.6240000  0  0
 23 10 24 16 47 13.6240000  0  0
 23 10 24 16 47 14.6240000  0  0
 23 10 24 16 47 15.6240000  0  0
 23 10 24 16 47 16.6240000  0  0
 23 10 24 16 47 17.6240000  0  0
 23 10 24 16 47 18.6240000  0  0
 23 10 24 16 47 19.6240000  0  0
 23 10 24 16 47 20.6240000  0  0
 23 10 24 16 47 21.6240000  0  0
 23 10 24 16 47 22.6240000  0  0
 23 10 24 16 47 23.6240000  0  0
 23 10 24 16 47 24.6240000  0  0
 23 10 24 16 47 25.6240000  0  0
 23 10 24 16 47 26.6240000  0  0
 23 10 24 16 47 27.6240000  0  0
 23 10 24 16 47 28.6240000  0  0
 23 10 24 16 47 29.6240000  0  0
 23 10 24 16 47 30.6240000  0  0
 23 10 24 16 47 31.6240000  0  0
 23 10 24 16 47 32.6240000  0  0
 23 10 24 16 47 33.6240000  0  0
 23 10 24 16 47 34.6240000  0  0
 23 10 24 16 47 35.6240000  0  0
 23 10 24 16 47 36.6240000  0  0
 23 10 24 16 47 37.6240000  0  0
 23 10 24 16 47 38.6240000  0  0
 23 10 24 16 47 39.6240000  0  0
 23 10 24 16 47 40.6240000  0  0
 23 10 24 16 47 41.6240000  0  0
 23 10 24 16 47 42.6240000  0  0
 23 10 24 16 47 43.6240000  0  0
 23 10 24 16 47 44.6240000  0  0
 23 10 24 16 47 45.6240000  0  0
 23 10 24 16 47 46.6240000  0  0
 23 10 24 16 47 47.6240000  0  0
 23 10 24 16 47 48.6240000  0  0
 23 10 24 16 47 49.6240000  0  0
 23 10 24 16 47 50.6240000  0  0
 23 10 24 16 47 51.6240000  0  0
 23 10 24 16 47 52.6240000  0  0
 23 10 24 16 47 53.6240000  0  0
 23 10 24 16 47 54.6240000  0  0
 23 10 24 16 47 55.6240000  0  0
 23 10 24 16 47 56.6240000  0  0
 23 10 24 16 47 57.6240000  0  0
 23 10 24 16 47 58.6240000  0  0
 23 10 24 16 47 59.6240000  0  0
 23 10 24 16 48  0.6240000  0  0
 23 10 24 16 48  1.6240000  0  0
 23 10 24 16 48  2.6240000  0  0
 23 10 24 16 48  3.6240000  0  0
 23 10 24 16 48  4.6240000  0  0
 23 10 24 16 48  5.6240000  0  0
 23 10 24 16 48  6.6240000  0  0
 23 10 24 16 48  7.6240000  0  0
 23 10 24 16 48  8.6240000  0  0
 23 10 24 16 48  9.6240000  0  0
 23 10 24 16 48 10.6240000  0  0
 23 10 24 16 48 11.6240000  0  0
 23 10 24 16 48 12.6240000  0  0
 23 10 24 16 48 13.6240000  0  0
 23 10 24 16 48 14.6240000  0  0
 23 10 24 16 48 15.6240000  0  0
 23 10 24 16 48 16.6240000  0  0
 23 10 24 16 48 17.6240000  0  0
 23 10 24 16 48 18.6240000  0  0
 23 10 24 16 48 19.6240000  0  0
 23 10 24 16 48 20.6240000  0  0
 23 10 24 16 48 21.6240000  0  0
 23 10 24 16 48 22.6240000  0  0
 23 10 24 16 48 23.6240000  0  0
 23 10 24 16 48 24.6240000  0  0
 23 10 24 16 48 25.6240000  0  0
 23 10 24 16 48 26.6240000  0  0
 23 10 24 16 48 27.6240000  0  0
 23 10 24 16 48 28.6240000  0  0
 23 10 24 16 48 29.6240000  0  0
 23 10 24 16 48 30.6240000  0  0
 23 10 24 16 48 31.6240000  0  0
 23 10 24 16 48 32.6240000  0  0
 23 10 24 16 48 33.6240000  0  0
 23 10 24 16 48 34.6240000  0  0
 23 10 24 16 48 35.6240000  0  0
 23 10 24 16 48 36.6240000  0  0
 23 10 24 16 48 37.6240000  0  0
 23 10 24 16 48 38.6240000  0  0
 23 10 24 16 48 39.6240000  0  0
 23 10 24 16 48 40.6240000  0  0
 23 10 24 16 48 41.6240000  0  0
 23 10 24 16 48 42.6240000  0  0
 23 10 24 16 48 43.6240000  0  0
 23 10 24 16 48 44.6240000  0  0
 23 10 24 16 48 45.6240000  0  0
 23 10 24 16 48 46.6240000  0  0
 23 10 24 16 48 47.6240000  0  0
 23 10 24 16 48 48.6240000  0  0
 23 10 24 16 48 49.6240000  0  0
 23 10 24 16 48 50.6240000  0  0
 23 10 24 16 48 51.6240000  0  0
 23 10 24 16 48 52.6240000  0  0
 23 10 24 16 48 53.6240000  0  0
 23 10 24 16 48 54.6240000  0  0
 23 10 24 16 48 55.6240000  0  0
 23 10 24 16 48 56.6240000  0  0
 23 10 24 16 48 57.6240000  0  0
 23 10 24 16 48 58.6240000  0  0
 23 10 24 16 48 59.6240000  0  0
 23 10 24 16 49  0.6240000  0  0
 23 10 24 16 49  1.6240000  0  0
 23 10 24 16 49  2.6240000  0  0
 23 10 24 16 49  3.6240000  0  0
 23 10 24 16 49  4.6240000  0  0
 23 10 24 16 49  5.6240000  0  0
 23 10 24 16 49  6.6240000  0  0
 23 10 24 16 49  7.6240000  0  0
 23 10 24 16 49  8.6240000  0  0
 23 10 24 16 49  9.6240000  0  0
 23 10 24 16 49 10.6240000  0  0
 23 10 24 16 49 11.6240000  0  0
 23 10 24 16 49 12.6240000  0  0
 23 10 24 16 49 13.6240000  0  0
 23 10 24 16 49 14.6240000  0  0
 23 10 24 16 49 15.6240000  0  0
 23 10 24 16 49 16.6240000  0  0
 23 10 24 16 49 17.6240000  0  0
 23 10 24 16 49 18.6240000  0  0
 23 10 24 16 49 19.6240000  0  0
 23 10 24 16 49 20.6240000  0  0
 23 10 24 16 49 21.6240000  0  0
 23 10 24 16 49 22.6240000  0  0
 23 10 24 16 49 23.6240000  0  0
 23 10 24 16 49 24.6240000  0  0
 23 10 24 16 49 25.6240000  0  0
 23 10 24 16 49 26.6240000  0  0
 23 10 24 16 49 27.6240000  0  0
 23 10 24 16 49 28.6240000  0  0
 23 10 24 16 49 29.6240000  0  0
 23 10 24 16 49 30.6240000  0  0
 23 10 24 16 49 31.6240000  0  0
 23 10 24 16 49 32.6240000  0  0
 23 10 24 16 49 33.6240000  0  0
 23 10 24 16 49 34.6240000  0  0
 23 10 24 16 49 35.6240000  0  0
 23 10 24 16 49 36.6240000  0  0
 23 10 24 16 49 37.6240000  0  0
 23 10 24 16 49 38.6240000  0  0
 23 10 24 16 49 39.6240000  0  0
 23 10 24 16 49 40.6240000  0  0
 23 10 24 16 49 41.6240000  0  0
 23 10 24 16 49 42.6240000  0  0
 23 10 24 16 49 43.6240000  0  0
 23 10 24 16 49 44.6240000  0  0
 23 10 24 16 49 45.6240000  0  0
 23 10 24 16 49 46.6240000  0  0
 23 10 24 16 49 47.6240000  0  0
 23 10 24 16 49 48.6240000  0  0
 23 10 24 16 49 49.6240000  0  0
 23 10 24 16 49 50.6240000  0  0
 23 10 24 16 49 51.6240000  0  0
 23 10 24 16 49 52.6240000  0  0
 23 10 24 16 49 53.6240000  0  0
 23 10 24 16 49 54.6240000  0  0
 23 10 24 16 49 55.6240000  0  0
 23 10 24 16 49 56.6240000  0  0
 23 10 24 16 49 57.6240000  0  0
 23 10 24 16 49 58.6240000  0  0
 23 10 24 16 49 59.6240000  0  0
 23 10 24 16 50  0.6240000  0  0
 23 10 24 16 50  1.6240000  0  0
 23 10 24 16 50  2.6240000  0  0
 23 10 24 16 50  3.6240000  0  0
 23 10 24 16 50  4.6240000  0  0
 23 10 24 16 50  5.6240000  0  0
 23 10 24 16 50  6.6240000  0  0
 23 10 24 16 50  7.6240000  0  0
 23 10 24 16 50  8.6240000  0  0
 23 10 24 16 50  9.6240000  0  0
 23 10 24 16 50 10.6240000  0  0
 23 10 24 16 50 11.6240000  0  0
 23 10 24 16 50 12.6240000  0  0
 23 10 24 16 50 13.6240000  0  0
 23 10 24 16 50 14.6240000  0  0
 23 10 24 16 50 15.6240000  0  0
 23 10 24 16 50 16.6240000  0  0
 23 10 24 16 50 17.6240000  0  0
 23 10 24 16 50 18.6240000  0  0
 23 10 24 16 50 19.6240000  0  0
 23 10 24 16 50 20.6240000  0  0
 23 10 24 16 50 21.6240000  0  0
 23 10 24 16 50 22.6240000  0  0
 23 10 24 16 50 23.6240000  0  0
 23 10 24 16 50 24.6240000  0  0
 23 10 24 16 50 25.6240000  0  0
 23 10 24 16 50 26.6240000  0  0
 23 10 24 16 50 27.6240000  0  0
 23 10 24 16 50 28.6240000  0  0
 23 10 24 16 50 29.6240000  0  0
 23 10 24 16 50 30.6240000  0  0
 23 10 24 16 50 31.6240000  0  0
 23 10 24 16 50 32.6240000  0  0
 23 10 24 16 50 33.6240000  0  0
 23 10 24 16 50 34.6240000  0  0
 23 10 24 16 50 35.6240000  0  0
 23 10 24 16 50 36.6240000  0  0
 23 10 24 16 50 37.6240000  0  0
 23 10 24 16 50 38.6240000  0  0
 23 10 24 16 50 39.6240000  0  0
 23 10 24 16 50 40.6240000  0  0
 23 10 24 16 50 41.6240000  0  0
 23 10 24 16 50 42.6240000  0  0
 23 10 24 16 50 43.6240000  0  0
 23 10 24 16 50 44.6240000  0  0
 23 10 24 16 50 45.6240000  0  0
 23 10 24 16 50 46.6240000  0  0
 23 10 24 16 50 47.6240000  0  0
 23 10 24 16 50 48.6240000  0  0
 23 10 24 16 50 49.6240000  0  0
 23 10 24 16 50 50.6240000  0  0
 23 10 24 16 50 51.6240000  0  0
 23 10 24 16 50 52.6240000  0  0
 23 10 24 16 50 53.6240000  0  0
 23 10 24 16 50 54.6240000  0  0
 23 10 24 16 50 55.6240000  0  0
 23 10 24 16 50 56.6240000  0  0
 23 10 24 16 50 57.6240000  0  0
 23 10 24 16 50 58.6240000  0  0
 23 10 24 16 50 59.6240000  0  0
 23 10 24 16 51  0.6240000  0  0
 23 10 24 16 51  1.6240000  0  0
 23 10 24 16 51  2.6240000  0  0
 23 10 24 16 51  3.6240000  0  0
 23 10 24 16 51  4.6240000  0  0
 23 10 24 16 51  5.6240000  0  0
 23 10 24 16 51  6.6240000  0  0
 23 10 24 16 51  7.6240000  0  0
 23 10 24 16 51  8.6240000  0  0
 23 10 24 16 51  9.6240000  0  0
 23 10 24 16 51 10.6240000  0  0
 23 10 24 16 51 11.6240000  0  0
 23 10 24 16 51 12.6240000  0  0
 23 10 24 16 51 13.6240000  0  0
 23 10 24 16 51 14.6240000  0  0
 23 10 24 16 51 15.6240000  0  0
 23 10 24 16 51 16.6240000  0  0
 23 10 24 16 51 17.6240000  0  0
 23 10 24 16 51 18.6240000  0  0
 23 10 24 16 51 19.6240000  0  0
 23 10 24 16 51 20.6240000  0  0
 23 10 24 16 51 21.6240000  0  0
 23 10 24 16 51 22.6240000  0  0
 23 10 24 16 51 23.6240000  0  0
 23 10 24 16 51 24.6240000  0  0
 23 10 24 16 51 25.6240000  0  0
 23 10 24 16 51 26.6240000  0  0
 23 10 24 16 51 27.6240000  0  0
 23 10 24 16 51 28.6240000  0  0
 23 10 24 16 51 29.6240000  0  0
 23 10 24 16 51 30.6240000  0  0
 23 10 24 16 51 31.6240000  0  0
 23 10 24 16 51 32.6240000  0  0
 23 10 24 16 51 33.6240000  0  0
 23 10 24 16 51 34.6240000  0  0
 23 10 24 16 51 35.6240000  0  0
 23 10 24 16 51 36.6240000  0  0
 23 10 24 16 51 37.6240000  0  0
 23 10 24 16 51 38.6240000  0  0
 23 10 24 16 51 39.6240000  0  0
 23 10 24 16 51 40.6240000  0  0
 23 10 24 16 51 41.6240000  0  0
 23 10 24 16 51 42.6240000  0  0
 23 10 24 16 51 43.6240000  0  0
 23 10 24 16 51 44.6240000  0  0
 23 10 24 16 51 45.6240000  0  0
 23 10 24 16 51 46.6240000  0  0
 23 10 24 16 51 47.6240000  0  0
 23 10 24 16 51 48.6240000  0  0
 23 10 24 16 51 49.6240000  0  0
 23 10 24 16 51 50.6240000  0  0
 23 10 24 16 51 51.6240000  0  0
 23 10 24 16 51 52.6240000  0  0
 23 10 24 16 51 53.6240000  0  0
 23 10 24 16 51 54.6240000  0  0
 23 10 24 16 51 55.6240000  0  0
 23 10 24 16 51 56.6240000  0  0
 23 10 24 16 51 57.6240000  0  0
 23 10 24 16 51 58.6240000  0  0
 23 10 24 16 51 59.6240000  0  0
 23 10 24 16 52  0.6240000  0  0
 23 10 24 16 52  1.6240000  0  0
 23 10 24 16 52  2.6240000  0  0
 23 10 24 16 52  3.6240000  0  0
 23 10 24 16 52  4.6240000  0  0
 23 10 24 16 52  5.6240000  0  0
 23 10 24 16 52  6.6240000  0  0
 23 10 24 16 52  7.6240000  0  0
 23 10 24 16 52  8.6240000  0  0
 23 10 24 16 52  9.6240000  0  0
 23 10 24 16 52 10.6240000  0  0
 23 10 24 16 52 11.6240000  0  0
 23 10 24 16 52 12.6240000  0  0
 23 10 24 16 52 13.6240000  0  0
 23 10 24 16 52 14.6240000  0  0
 23 10 24 16 52 15.6240000  0  0
 23 10 24 16 52 16.6240000  0  0
 23 10 24 16 52 17.6240000  0  0
 23 10 24 16 52 18.6240000  0  0
 23 10 24 16 52 19.6240000  0  0
 23 10 24 16 52 20.6240000  0  0
 23 10 24 16 52 21.6240000  0  0
 23 10 24 16 52 22.6240000  0  0
 23 10 24 16 52 23.6240000  0  0
 23 10 24 16 52 24.6240000  0  0
 23 10 24 16 52 25.6240000  0  0
 23 10 24 16 52 26.6240000  0  0
 23 10 24 16 52 27.6240000  0  0
 23 10 24 16 52 28.6240000  0  0
 23 10 24 16 52 29.6240000  0  0
 23 10 24 16 52 30.6240000  0  0
 23 10 24 16 52 31.6240000  0  0
 23 10 24 16 52 32.6240000  0  0
 23 10 24 16 52 33.6240000  0  0
 23 10 24 16 52 34.6240000  0  0
 23 10 24 16 52 35.6240000  0  0
 23 10 24 16 52 36.6240000  0  0
 23 10 24 16 52 37.6240000  0  0
 23 10 24 16 52 38.6240000  0  0
 23 10 24 16 52 39.6240000  0  0
 23 10 24 16 52 40.6240000  0  0
 23 10 24 16 52 41.6240000  0  0
 23 10 24 16 52 42.6240000  0  0
 23 10 24 16 52 43.6240000  0  0
 23 10 24 16 52 44.6240000  0  0
 23 10 24 16 52 45.6240000  0  0
 23 10 24 16 52 46.6240000  0  0
 23 10 24 16 52 47.6240000  0  0
 23 10 24 16 52 48.6240000  0  0
 23 10 24 16 52 49.6240000  0  0
 23 10 24 16 52 50.6240000  0  0
 23 10 24 16 52 51.6240000  0  0
 23 10 24 16 52 52.6240000  0  0
 23 10 24 16 52 53.6240000  0  0
 23 10 24 16 52 54.6240000  0  0
 23 10 24 16 52 55.6240000  0  0
 23 10 24 16 52 56.6240000  0  0
 23 10 24 16 52 57.6240000  0  0
 23 10 24 16 52 58.6240000  0  0
 23 10 24 16 52 59.6240000  0  0
 23 10 24 16 53  0.6240000  0  0
 23 10 24 16 53  1.6240000  0  0
 23 10 24 16 53  2.6240000  0  0
 23 10 24 16 53  3.6240000  0  0
 23 10 24 16 53  4.6240000  0  0
 23 10 24 16 53  5.6240000  0  0
 23 10 24 16 53  6.6240000  0  0
 23 10 24 16 53  7.6240000  0  0
 23 10 24 16 53  8.6240000  0  0
 23 10 24 16 53  9.6240000  0  0
 23 10 24 16 53 10.6240000  0  0
 23 10 24 16 53 11.6240000  0  0
 23 10 24 16 53 12.6240000  0  0
 23 10 24 16 53 13.6240000  0  0
 23 10 24 16 53 14.6240000  0  0
 23 10 24 16 53 15.6240000  0  0
 23 10 24 16 53 16.6240000  0  0
 23 10 24 16 53 17.6240000  0  0
 23 10 24 16 53 18.6240000  0  0
 23 10 24 16 53 19.6240000  0  0
 23 10 24 16 53 20.6240000  0  0
 23 10 24 16 53 21.6240000  0  0
 23 10 24 16 53 22.6240000  0  0
 23 10 24 16 53 23.6240000  0  0
 23 10 24 16 53 24.6240000  0  0
 23 10 24 16 53 25.6240000  0  0
 23 10 24 16 53 26.6240000  0  0
 23 10 24 16 53 27.6240000  0  0
 23 10 24 16 53 28.6240000  0  0
 23 10 24 16 53 29.6240000  0  0
 23 10 24 16 53 30.6240000  0  0
 23 10 24 16 53 31.6240000  0  0
 23 10 24 16 53 32.6240000  0  0
 23 10 24 16 53 33.6240000  0  0
 23 10 24 16 53 34.6240000  0  0
 23 10 24 16 53 35.6240000  0  0
 23 10 24 16 53 36.6240000  0  0
 23 10 24 16 53 37.6240000  0  0
 23 10 24 16 53 38.6240000  0  0
 23 10 24 16 53 39.6240000  0  0
 23 10 24 16 53 40.6240000  0  0
 23 10 24 16 53 41.6240000  0  0
 23 10 24 16 53 42.6240000  0  0
 23 10 24 16 53 43.6240000  0  0
 23 10 24 16 53 44.6240000  0  0
 23 10 24 16 53 45.6240000  0  0
 23 10 24 16 53 46.6240000  0  0
 23 10 24 16 53 47.6240000  0  0
 23 10 24 16 53 48.6240000  0  0
 23 10 24 16 53 49.6240000  0  0
 23 10 24 16 53 50.6240000  0  0
 23 10 24 16 53 51.6240000  0  0
 23 10 24 16 53 52.6240000  0  0
 23 10 24 16 53 53.6240000  0  0
 23 10 24 16 53 54.6240000  0  0
 23 10 24 16 53 55.6240000  0  0
 23 10 24 16 53 56.6240000  0  0
 23 10 24 16 53 57.6240000  0  0
 23 10 24 16 53 58.6240000  0  0
 23 10 24 16 53 59.6240000  0  0
 23 10 24 16 54  0.6240000  0  0
 23 10 24 16 54  1.6240000  0  0
 23 10 24 16 54  2.6240000  0  0
 23 10 24 16 54  3.6240000  0  0
 23 10 24 16 54  4.6240000  0  0
 23 10 24 16 54  5.6240000  0  0
 23 10 24 16 54  6.6240000  0  0
 23 10 24 16 54  7.6240000  0  0
 23 10 24 16 54  8.6240000  0  0
 23 10 24 16 54  9.6240000  0  0
 23 10 24 16 54 10.6240000  0  0
 23 10 24 16 54 11.6240000  0  0
 23 10 24 16 54 12.6240000  0  0
 23 10 24 16 54 13.6240000  0  0
 23 10 24 16 54 14.6240000  0  0
 23 10 24 16 54 15.6240000  0  0
 23 10 24 16 54 16.6240000  0  0
 23 10 24 16 54 17.6240000  0  0
 23 10 24 16 54 18.6240000  0  0
 23 10 24 16 54 19.6240000  0  0
 23 10 24 16 54 20.6240000  0  0
 23 10 24 16 54 21.6240000  0  0
 23 10 24 16 54 22.6240000  0  0
 23 10 24 16 54 23.6240000  0  0
 23 10 24 16 54 24.6240000  0  0
 23 10 24 16 54 25.6240000  0  0
 23 10 24 16 54 26.6240000  0  0
 23 10 24 16 54 27.6240000  0  0
 23 10 24 16 54 28.6240000  0  0
 23 10 24 16 54 29.6240000  0  0
 23 10 24 16 54 30.6240000  0  0
 23 10 24 16 54 31.6240000  0  0
 23 10 24 16 54 32.6240000  0  0
 23 10 24 16 54 33.6240000  0  0
 23 10 24 16 54 34.6240000  0  0
 23 10 24 16 54 35.6240000  0  0
 23 10 24 16 54 36.6240000  0  0
 23 10 24 16 54 37.6240000  0  0
 23 10 24 16 54 38.6240000  0  0
 23 10 24 16 54 39.6240000  0  0
 23 10 24 16 54 40.6240000  0  0
 23 10 24 16 54 41.6240000  0  0
 23 10 24 16 54 42.6240000  0  0
 23 10 24 16 54 43.6240000  0  0
 23 10 24 16 54 44.6240000  0  0
 23 10 24 16 54 45.6240000  0  0
 23 10 24 16 54 46.6240000  0  0
 23 10 24 16 54 47.6240000  0  0
 23 10 24 16 54 48.6240000  0  0
 23 10 24 16 54 49.6240000  0  0
 23 10 24 16 54 50.6240000  0  0
 23 10 24 16 54 51.6240000  0  0
 23 10 24 16 54 52.6240000  0  0
 23 10 24 16 54 53.6240000  0  0
 23 10 24 16 54 54.6240000  0  0
 23 10 24 16 54 55.6240000  0  0
 23 10 24 16 54 56.6240000  0  0
 23 10 24 16 54 57.6240000  0  0
 23 10 24 16 54 58.6240000  0  0
 23 10 24 16 54 59.6240000  0  0
 23 10 24 16 55  0.6240000  0  0
 23 10 24 16 55  1.6240000  0  0
 23 10 24 16 55  2.6240000  0  0
 23 10 24 16 55  3.6240000  0  0
 23 10 24 16 55  4.6240000  0  0
 23 10 24 16 55  5.6240000  0  0
 23 10 24 16 55  6.6240000  0  0
 23 10 24 16 55  7.6240000  0  0
 23 10 24 16 55  8.6240000  0  0
 23 10 24 16 55  9.6240000  0  0
 23 10 24 16 55 10.6240000  0  0
 23 10 24 16 55 11.6240000  0  0
 23 10 24 16 55 12.6240000  0  0
 23 10 24 16 55 13.6240000  0  0
 23 10 24 16 55 14.6240000  0  0
 23 10 24 16 55 15.6240000  0  0
 23 10 24 16 55 16.6240000  0  0
 23 10 24 16 55 17.6240000  0  0
 23 10 24 16 55 18.6240000  0  0
 23 10 24 16 55 19.6240000  0  0
 23 10 24 16 55 20.6240000  0  0
 23 10 24 16 55 21.6240000  0  0
 23 10 24 16 55 22.6240000  0  0
 23 10 24 16 55 23.6240000  0  0
 23 10 24 16 55 24.6240000  0  0
 23 10 24 16 55 25.6240000  0  0
 23 10 24 16 55 26.6240000  0  0
 23 10 24 16 55 27.6240000  0  0
 23 10 24 16 55 28.6240000  0  0
 23 10 24 16 55 29.6240000  0  0
 23 10 24 16 55 30.6240000  0  0
 23 10 24 16 55 31.6240000  0  0
 23 10 24 16 55 32.6240000  0  0
 23 10 24 16 55 33.6240000  0  0
 23 10 24 16 55 34.6240000  0  0
 23 10 24 16 55 35.6240000  0  0
 23 10 24 16 55 36.6240000  0  0
 23 10 24 16 55 37.6240000  0  0
 23 10 24 16 55 38.6240000  0  0
 23 10 24 16 55 39.6240000  0  0
 23 10 24 16 55 40.6240000  0  0
 23 10 24 16 55 41.6240000  0  0
 23 10 24 16 55 42.6240000  0  0
 23 10 24 16 55 43.6240000  0  0
 23 10 24 16 55 44.6240000  0  0
 23 10 24 16 55 45.6240000  0  0
 23 10 24 16 55 46.6240000  0  0
 23 10 24 16 55 47.6240000  0  0
 23 10 24 16 55 48.6240000  0  0
 23 10 24 16 55 49.6240000  0  0
 23 10 24 16 55 50.6240000  0  0
 23 10 24 16 55 51.6240000  0  0
 23 10 24 16 55 52.6240000  0  0
 23 10 24 16 55 53.6240000  0  0
 23 10 24 16 55 54.6240000  0  0
 23 10 24 16 55 55.6240000  0  0
 23 10 24 16 55 56.6240000  0  0
 23 10 24 16 55 57.6240000  0  0
 23 10 24 16 55 58.6240000  0  0
 23 10 24 16 55 59.6240000  0  0
 23 10 24 16 56  0.6240000  0  0
 23 10 24 16 56  1.6240000  0  0
 23 10 24 16 56  2.6240000  0  0
 23 10 24 16 56  3.6240000  0  0
 23 10 24 16 56  4.6240000  0  0
 23 10 24 16 56  5.6240000  0  0
 23 10 24 16 56  6.6240000  0  0
 23 10 24 16 56  7.6240000  0  0
 23 10 24 16 56  8.6240000  0  0
 23 10 24 16 56  9.6240000  0  0
 23 10 24 16 56 10.6240000  0  0
 23 10 24 16 56 11.6240000  0  0
 23 10 24 16 56 12.6240000  0  0
 23 10 24 16 56 13.6240000  0  0
 23 10 24 16 56 14.6240000  0  0
 23 10 24 16 56 15.6240000  0  0
 23 10 24 16 56 16.6240000  0  0
 23 10 24 16 56 17.6240000  0  0
 23 10 24 16 56 18.6240000  0  0
 23 10 24 16 56 19.6240000  0  0
 23 10 24 16 56 20.6240000  0  0
 23 10 24 16 56 21.6240000  0  0
 23 10 24 16 56 22.6240000  0  0
 23 10 24 16 56 23.6240000  0  0
 23 10 24 16 56 24.6240000  0  0
 23 10 24 16 56 25.6240000  0  0
 23 10 24 16 56 26.6240000  0  0
 23 10 24 16 56 27.6240000  0  0
 23 10 24 16 56 28.6240000  0  0
 23 10 24 16 56 29.6240000  0  0
 23 10 24 16 56 30.6240000  0  0
 23 10 24 16 56 31.6240000  0  0
 23 10 24 16 56 32.6240000  0  0
 23 10 24 16 56 33.6240000  0  0
 23 10 24 16 56 34.6240000  0  0
 23 10 24 16 56 35.6240000  0  0
 23 10 24 16 56 36.6240000  0  0
 23 10 24 16 56 37.6240000  0  0
 23 10 24 16 56 38.6240000  0  0
 23 10 24 16 56 39.6240000  0  0
 23 10 24 16 56 40.6240000  0  0
 23 10 24 16 56 41.6240000  0  0
 23 10 24 16 56 42.6240000  0  0
 23 10 24 16 56 43.6240000  0  0
 23 10 24 16 56 44.6240000  0  0
 23 10 24 16 56 45.6240000  0  0
 23 10 24 16 56 46.6240000  0  0
 23 10 24 16 56 47.6240000  0  0
 23 10 24 16 56 48.6240000  0  0
 23 10 24 16 56 49.6240000  0  0
 23 10 24 16 56 50.6240000  0  0
 23 10 24 16 56 51.6240000  0  0
 23 10 24 16 56 52.6240000  0  0
 23 10 24 16 56 53.6240000  0  0
 23 10 24 16 56 54.6240000  0  0
 23 10 24 16 56 55.6240000  0  0
 23 10 24 16 56 56.6240000  0  0
 23 10 24 16 56 57.6240000  0  0
 23 10 24 16 56 58.6240000  0  0
 23 10 24 16 56 59.6240000  0  0
 23 10 24 16 57  0.6240000  0  0
 23 10 24 16 57  1.6240000  0  0
 23 10 24 16 57  2.6240000  0  0
 23 10 24 16 57  3.6240000  0  0
 23 10 24 16 57  4.6240000  0  0
 23 10 24 16 57  5.6240000  0  0
 23 10 24 16 57  6.6240000  0  0
 23 10 24 16 57  7.6240000  0  0
 23 10 24 16 57  8.6240000  0  0
 23 10 24 16 57  9.6240000  0  0
 23 10 24 16 57 10.6240000  0  0
 23 10 24 16 57 11.6240000  0  0
 23 10 24 16 57 12.6240000  0  0
 23 10 24 16 57 13.6240000  0  0
 23 10 24 16 57 14.6240000  0  0
 23 10 24 16 57 15.6240000  0  0
 23 10 24 16 57 16.6240000  0  0
 23 10 24 16 57 17.6240000  0  0
 23 10 24 16 57 18.6240000  0  0
 23 10 24 16 57 19.6240000  0  0
 23 10 24 16 57 20.6240000  0  0
 23 10 24 16 57 21.6240000  0  0
 23 10 24 16 57 22.6240000  0  0
 23 10 24 16 57 23.6240000  0  0
 23 10 24 16 57 24.6240000  0  0
 23 10 24 16 57 25.6240000  0  0
 23 10 24 16 57 26.6240000  0  0
 23 10 24 16 57 27.6240000  0  0
 23 10 24 16 57 28.6240000  0  0
 23 10 24 16 57 29.6240000  0  0
 23 10 24 16 57 30.6240000  0  0
 23 10 24 16 57 31.6240000  0  0
 23 10 24 16 57 32.6240000  0  0
 23 10 24 16 57 33.6240000  0  0
 23 10 24 16 57 34.6240000  0  0
 23 10 24 16 57 35.6240000  0  0
 23 10 24 16 57 36.6240000  0  0
 23 10 24 16 57 37.6240000  0  0
 23 10 24 16 57 38.6240000  0  0
 23 10 24 16 57 39.6240000  0  0
 23 10 24 16 57 40.6240000  0  0
 23 10 24 16 57 41.6240000  0  0
 23 10 24 16 57 42.6240000  0  0
 23 10 24 16 57 43.6240000  0  0
 23 10 24 16 57 44.6240000  0  0
 23 10 24 16 57 45.6240000  0  0
 23 10 24 16 57 46.6240000  0  0
 23 10 24 16 57 47.6240000  0  0
 23 10 24 16 57 48.6240000  0  0
 23 10 24 16 57 49.6240000  0  0
 23 10 24 16 57 50.6240000  0  0
 23 10 24 16 57 51.6240000  0  0
 23 10 24 16 57 52.6240000  0  0
 23 10 24 16 57 53.6240000  0  0
 23 10 24 16 57 54.6240000  0  0
 23 10 24 16 57 55.6240000  0  0
 23 10 24 16 57 56.6240000  0  0
 23 10 24 16 57 57.6240000  0  0
 23 10 24 16 57 58.6240000  0  0
 23 10 24 16 57 59.6240000  0  0
 23 10 24 16 58  0.6240000  0  0
 23 10 24 16 58  1.6240000  0  0
 23 10 24 16 58  2.6240000  0  0
 23 10 24 16 58  3.6240000  0  0
 23 10 24 16 58  4.6240000  0  0
 23 10 24 16 58  5.6240000  0  0
 23 10 24 16 58  6.6240000  0  0
 23 10 24 16 58  7.6240000  0  0
 23 10 24 16 58  8.6240000  0  0
 23 10 24 16 58  9.6240000  0  0
 23 10 24 16 58 10.6240000  0  0
 23 10 24 16 58 11.6240000  0  0
 23 10 24 16 58 12.6240000  0  0
 23 10 24 16 58 13.6240000  0  0
 23 10 24 16 58 14.6240000  0  0
 23 10 24 16 58 15.6240000  0  0
 23 10 24 16 58 16.6240000  0  0
 23 10 24 16 58 17.6240000  0  0
 23 10 24 16 58 18.6240000  0  0
 23 10 24 16 58 19.6240000  0  0
 23 10 24 16 58 20.6240000  0  0
 23 10 24 16 58 21.6240000  0  0
 23 10 24 16 58 22.6240000  0  0
 23 10 24 16 58 23.6240000  0  0
 23 10 24 16 58 24.6240000  0  0
 23 10 24 16 58 25.6240000  0  0
 23 10 24 16 58 26.6240000  0  0
 23 10 24 16 58 27.6240000  0  0
 23 10 24 16 58 28.6240000  0  0
 23 10 24 16 58 29.6240000  0  0
 23 10 24 16 58 30.6240000  0  0
 23 10 24 16 58 31.6240000  0  0
 23 10 24 16 58 32.6240000  0  0
 23 10 24 16 58 33.6240000  0  0
 23 10 24 16 58 34.6240000  0  0
 23 10 24 16 58 35.6240000  0  0
 23 10 24 16 58 36.6240000  0  0
 23 10 24 16 58 37.6240000  0  0
 23 10 24 16 58 38.6240000  0  0
 23 10 24 16 58 39.6240000  0  0
 23 10 24 16 58 40.6240000  0  0
 23 10 24 16 58 41.6240000  0  0
 23 10 24 16 58 42.6240000  0  0
 23 10 24 16 58 43.6240000  0  0
 23 10 24 16 58 44.6240000  0  0
 23 10 24 16 58 45.6240000  0  0
 23 10 24 16 58 46.6240000  0  0
 23 10 24 16 58 47.6240000  0  0
 23 10 24 16 58 48.6240000  0  0
 23 10 24 16 58 49.6240000  0  0
 23 10 24 16 58 50.6240000  0  0
 23 10 24 16 58 51.6240000  0  0
 23 10 24 16 58 52.6240000  0  0
 23 10 24 16 58 53.6240000  0  0
 23 10 24 16 58 54.6240000  0  0
 23 10 24 16 58 55.6240000  0  0
 23 10 24 16 58 56.6240000  0  0
 23 10 24 16 58 57.6240000  0  0
 23 10 24 16 58 58.6240000  0  0
 23 10 24 16 58 59.6240000  0  0
 23 10 24 16 59  0.6240000  0  0
 23 10 24 16 59  1.6240000  0  0
 23 10 24 16 59  2.6240000  0  0
 23 10 24 16 59  3.6240000  0  0
 23 10 24 16 59  4.6240000  0  0
 23 10 24 16 59  5.6240000  0  0
 23 10 24 16 59  6.6240000  0  0
 23 10 24 16 59  7.6240000  0  0
 23 10 24 16 59  8.6240000  0  0
 23 10 24 16 59  9.6240000  0  0
 23 10 24 16 59 10.6240000  0  0
 23 10 24 16 59 11.6240000  0  0
 23 10 24 16 59 12.6240000  0  0
 23 10 24 16 59 13.6240000  0  0
 23 10 24 16 59 14.6240000  0  0
 23 10 24 16 59 15.6240000  0  0
 23 10 24 16 59 16.6240000  0  0
 23 10 24 16 59 17.6240000  0  0
 23 10 24 16 59 18.6240000  0  0
 23 10 24 16 59 19.6240000  0  0
 23 10 24 16 59 20.6240000  0  0
 23 10 24 16 59 21.6240000  0  0
 23 10 24 16 59 22.6240000  0  0
 23 10 24 16 59 23.6240000  0  0
 23 10 24 16 59 24.6240000  0  0
 23 10 24 16 59 25.6240000  0  0
 23 10 24 16 59 26.6240000  0  0
 23 10 24 16 59 27.6240000  0  0
 23 10 24 16 59 28.6240000  0  0
 23 10 24 16 59 29.6240000  0  0
 23 10 24 16 59 30.6240000  0  0
 23 10 24 16 59 31.6240000  0  0
 23 10 24 16 59 32.6240000  0  0
 23 10 24 16 59 33.6240000  0  0
 23 10 24 16 59 34.6240000  0  0
 23 10 24 16 59 35.6240000  0  0
 23 10 24 16 59 36.6240000  0  0
 23 10 24 16 59 37.6240000  0  0
 23 10 24 16 59 38.6240000  0  0
 23 10 24 16 59 39.6240000  0  0
 23 10 24 16 59 40.6240000  0  0
 23 10 24 16 59 41.6240000  0  0
 23 10 24 16 59 42.6240000  0  0
 23 10 24 16 59 43.6240000  0  0
 23 10 24 16 59 44.6240000  0  0
 23 10 24 16 59 45.6240000  0  0
 23 10 24 16 59 46.6240000  0  0
 23 10 24 16 59 47.6240000  0  0
 23 10 24 16 59 48.6240000  0  0
 23 10 24 16 59 49.6240000  0  0
 23 10 24 16 59 50.6240000  0  0
 23 10 24 16 59 51.6240000  0  0
 23 10 24 16 59 52.6240000  0  0
 23 10 24 16 59 53.6240000  0  0
 23 10 24 16 59 54.6240000  0  0
 23 10 24 16 59 55.6240000  0  0
 23 10 24 16 59 56.6240000  0  0
 23 10 24 16 59 57.6240000  0  0
 23 10 24 16 59 58.6240000  0  0
 23 10 24 16 59 59.6240000  0  0
 23 10 24 17  0  0.6240000  0  0
 23 10 24 17  0  1.6240000  0  0
 23 10 24 17  0  2.6240000  0  0
 23 10 24 17  0  3.6240000  0  0
 23 10 24 17  0  4.6240000  0  0
 23 10 24 17  0  5.6240000  0  0
 23 10 24 17  0  6.6240000  0  0
 23 10 24 17  0  7.6240000  0  0
 23 10 24 17  0  8.6240000  0  0
 23 10 24 17  0  9.6240000  0  0
 23 10 24 17  0 10.6240000  0  0
 23 10 24 17  0 11.6240000  0  0
 23 10 24 17  0 12.6240000  0  0
 23 10 24 17  0 13.6240000  0  0
 23 10 24 17  0 14.6240000  0  0
 23 10 24 17  0 15.6240000  0  0
 23 10 24 17  0 16.6240000  0  0
 23 10 24 17  0 17.6240000  0  0
 23 10 24 17  0 18.6240000  0  0
 23 10 24 17  0 19.6240000  0  0
 23 10 24 17  0 20.6240000  0  0
 23 10 24 17  0 21.6240000  0  0
 23 10 24 17  0 22.6240000  0  0
 23 10 24 17  0 23.6240000  0  0
 23 10 24 17  0 24.6240000  0  0
 23 10 24 17  0 25.6240000  0  0
 23 10 24 17  0 26.6240000  0  0
 23 10 24 17  0 27.6240000  0  0
 23 10 24 17  0 28.6240000  0  0
 23 10 24 17  0 29.6240000  0  0
 23 10 24 17  0 30.6240000  0  0
 23 10 24 17  0 31.6240000  0  0
 23 10 24 17  0 32.6240000  0  0
 23 10 24 17  0 33.6240000  0  0
 23 10 24 17  0 34.6240000  0  0
 23 10 24 17  0 35.6240000  0  0
 23 10 24 17  0 36.6240000  0  0
 23 10 24 17  0 37.6240000  0  0
 23 10 24 17  0 38.6240000  0  0
 23 10 24 17  0 39.6240000  0  0
 23 10 24 17  0 40.6240000  0  0
 23 10 24 17  0 41.6240000  0  0
 23 10 24 17  0 42.6240000  0  0
 23 10 24 17  0 43.6240000  0  0
 23 10 24 17  0 44.6240000  0  0
 23 10 24 17  0 45.6240000  0  0
 23 10 24 17  0 46.6240000  0  0
 23 10 24 17  0 47.6240000  0  0
 23 10 24 17  0 48.6240000  0  0
 23 10 24 17  0 49.6240000  0  0
 23 10 24 17  0 50.6240000  0  0
 23 10 24 17  0 51.6240000  0  0
 23 10 24 17  0 52.6240000  0  0
 23 10 24 17  0 53.6240000  0  0
 23 10 24 17  0 54.6240000  0  0
 23 10 24 17  0 55.6240000  0  0
 23 10 24 17  0 56.6240000  0  0
 23 10 24 17  0 57.6240000  0  0
 23 10 24 17  0 58.6240000  0  0
 23 10 24 17  0 59.6240000  0  0
 23 10 24 17  1  0.6240000  0  0
 23 10 24 17  1  1.6240000  0  0
 23 10 24 17  1  2.6240000  0  0
 23 10 24 17  1  3.6240000  0  0
 23 10 24 17  1  4.6240000  0  0
 23 10 24 17  1  5.6240000  0  0
 23 10 24 17  1  6.6240000  0  0
 23 10 24 17  1  7.6240000  0  0
 23 10 24 17  1  8.6240000  0  0
 23 10 24 17  1  9.6240000  0  0
 23 10 24 17  1 10.6240000  0  0
 23 10 24 17  1 11.6240000  0  0
 23 10 24 17  1 12.6240000  0  0
 23 10 24 17  1 13.6240000  0  0
 23 10 24 17  1 14.6240000  0  0
 23 10 24 17  1 15.6240000  0  0
 23 10 24 17  1 16.6240000  0  0
 23 10 24 17  1 17.6240000  0  0
 23 10 24 17  1 18.6240000  0  0
 23 10 24 17  1 19.6240000  0  0
 23 10 24 17  1 20.6240000  0  0
 23 10 24 17  1 21.6240000  0  0
 23 10 24 17  1 22.6240000  0  0
 23 10 24 17  1 23.6240000  0  0
 23 10 24 17  1 24.6240000  0  0
 23 10 24 17  1 25.6240000  0  0
 23 10 24 17  1 26.6240000  0  0
 23 10 24 17  1 27.6240000  0  0
 23 10 24 17  1 28.6240000  0  0
 23 10 24 17  1 29.6240000  0  0
 23 10 24 17  1 30.6240000  0  0
 23 10 24 17  1 31.6240000  0  0
 23 10 24 17  1 32.6240000  0  0
 23 10 24 17  1 33.6240000  0  0
 23 10 24 17  1 34.6240000  0  0
 23 10 24 17  1 35.6240000  0  0
 23 10 24 17  1 36.6240000  0  0
 23 10 24 17  1 37.6240000  0  0
 23 10 24 17  1 38.6240000  0  0
 23 10 24 17  1 39.6240000  0  0
 23 10 24 17  1 40.6240000  0  0
 23 10 24 17  1 41.6240000  0  0
 23 10 24 17  1 42.6240000  0  0
 23 10 24 17  1 43.6240000  0  0
 23 10 24 17  1 44.6240000  0  0
 23 10 24 17  1 45.6240000  0  0
 23 10 24 17  1 46.6240000  0  0
 23 10 24 17  1 47.6240000  0  0
 23 10 24 17  1 48.6240000  0  0
 23 10 24 17  1 49.6240000  0  0
 23 10 24 17  1 50.6240000  0  0
 23 10 24 17  1 51.6240000  0  0
 23 10 24 17  1 52.6240000  0  0
 23 10 24 17  1 53.6240000  0  0
 23 10 24 17  1 54.6240000  0  0
 23 10 24 17  1 55.6240000  0  0
 23 10 24 17  1 56.6240000  0  0
 23 10 24 17  1 57.6240000  0  0
 23 10 24 17  1 58.6240000  0  0
 23 10 24 17  1 59.6240000  0  0
 23 10 24 17  2  0.6240000  0  0
 23 10 24 17  2  1.6240000  0  0
 23 10 24 17  2  2.6240000  0  0
 23 10 24 17  2  3.6240000  0  0
 23 10 24 17  2  4.6240000  0  0
 23 10 24 17  2  5.6240000  0  0
 23 10 24 17  2  6.6240000  0  0
 23 10 24 17  2  7.6240000  0  0
 23 10 24 17  2  8.6240000  0  0
 23 10 24 17  2  9.6240000  0  0
 23 10 24 17  2 10.6240000  0  0
 23 10 24 17  2 11.6240000  0  0
 23 10 24 17  2 12.6240000  0  0
 23 10 24 17  2 13.6240000  0  0
 23 10 24 17  2 14.6240000  0  0
 23 10 24 17  2 15.6240000  0  0
 23 10 24 17  2 16.6240000  0  0
 23 10 24 17  2 17.6240000  0  0
 23 10 24 17  2 18.6240000  0  0
 23 10 24 17  2 19.6240000  0  0
 23 10 24 17  2 20.6240000  0  0
 23 10 24 17  2 21.6240000  0  0
 23 10 24 17  2 22.6240000  0  0
 23 10 24 17  2 23.6240000  0  0
 23 10 24 17  2 24.6240000  0  0
 23 10 24 17  2 25.6240000  0  0
 23 10 24 17  2 26.6240000  0  0
 23 10 24 17  2 27.6240000  0  0
 23 10 24 17  2 28.6240000  0  0
 23 10 24 17  2 29.6240000  0  0
 23 10 24 17  2 30.6240000  0  0
 23 10 24 17  2 31.6240000  0  0
 23 10 24 17  2 32.6240000  0  0
 23 10 24 17  2 33.6240000  0  0
 23 10 24 17  2 34.6240000  0  0
 23 10 24 17  2 35.6240000  0  0
 23 10 24 17  2 36.6240000  0  0
 23 10 24 17  2 37.6240000  0  0
 23 10 24 17  2 38.6240000  0  0
 23 10 24 17  2 39.6240000  0  0
 23 10 24 17  2 40.6240000  0  0
 23 10 24 17  2 41.6240000  0  0
 23 10 24 17  2 42.6240000  0  0
 23 10 24 17  2 43.6240000  0  0
 23 10 24 17  2 44.6240000  0  0
 23 10 24 17  2 45.6240000  0  0
 23 10 24 17  2 46.6240000  0  0
 23 10 24 17  2 47.6240000  0  0
 23 10 24 17  2 48.6240000  0  0
 23 10 24 17  2 49.6240000  0  0
 23 10 24 17  2 50.6240000  0  0
 23 10 24 17  2 51.6240000  0  0
 23 10 24 17  2 52.6240000  0  0
 23 10 24 17  2 53.6240000  0  0
 23 10 24 17  2 54.6240000  0  0
 23 10 24 17  2 55.6240000  0  0
 23 10 24 17  2 56.6240000  0  0
 23 10 24 17  2 57.6240000  0  0
 23 10 24 17  2 58.6240000  0  0
 23 10 24 17  2 59.6240000  0  0
 23 10 24 17  3  0.6240000  0  0
 23 10 24 17  3  1.6240000  0  0
 23 10 24 17  3  2.6240000  0  0
 23 10 24 17  3  3.6240000  0  0
 23 10 24 17  3  4.6240000  0  0
 23 10 24 17  3  5.6240000  0  0
 23 10 24 17  3  6.6240000  0  0
 23 10 24 17  3  7.6240000  0  0
 23 10 24 17  3  8.6240000  0  0
 23 10 24 17  3  9.6240000  0  0
 23 10 24 17  3 10.6240000  0  0
 23 10 24 17  3 11.6240000  0  0
 23 10 24 17  3 12.6240000  0  0
 23 10 24 17  3 13.6240000  0  0
 23 10 24 17  3 14.6240000  0  0
 23 10 24 17  3 15.6240000  0  0
 23 10 24 17  3 16.6240000  0  0
 23 10 24 17  3 17.6240000  0  0
 23 10 24 17  3 18.6240000  0  0
 23 10 24 17  3 19.6240000  0  0
 23 10 24 17  3 20.6240000  0  0
 23 10 24 17  3 21.6240000  0  0
 23 10 24 17  3 22.6240000  0  0
 23 10 24 17  3 23.6240000  0  0
 23 10 24 17  3 24.6240000  0  0
 23 10 24 17  3 25.6240000  0  0
 23 10 24 17  3 26.6240000  0  0
 23 10 24 17  3 27.6240000  0  0
 23 10 24 17  3 28.6240000  0  0
 23 10 24 17  3 29.6240000  0  0
 23 10 24 17  3 30.6240000  0  0
 23 10 24 17  3 31.6240000  0  0
 23 10 24 17  3 32.6240000  0  0
 23 10 24 17  3 33.6240000  0  0
 23 10 24 17  3 34.6240000  0  0
 23 10 24 17  3 35.6240000  0  0
 23 10 24 17  3 36.6240000  0  0
 23 10 24 17  3 37.6240000  0  0
 23 10 24 17  3 38.6240000  0  0
 23 10 24 17  3 39.6240000  0  0
 23 10 24 17  3 40.6240000  0  0
 23 10 24 17  3 41.6240000  0  0
 23 10 24 17  3 42.6240000  0  0
 23 10 24 17  3 43.6240000  0  0
 23 10 24 17  3 44.6240000  0  0
 23 10 24 17  3 45.6240000  0  0
 23 10 24 17  3 46.6240000  0  0
 23 10 24 17  3 47.6240000  0  0
 23 10 24 17  3 48.6240000  0  0
 23 10 24 17  3 49.6240000  0  0
 23 10 24 17  3 50.6240000  0  0
 23 10 24 17  3 51.6240000  0  0
 23 10 24 17  3 52.6240000  0  0
 23 10 24 17  3 53.6240000  0  0
 23 10 24 17  3 54.6240000  0  0
 23 10 24 17  3 55.6240000  0  0
 23 10 24 17  3 56.6240000  0  0
 23 10 24 17  3 57.6240000  0  0
 23 10 24 17  3 58.6240000  0  0
 23 10 24 17  3 59.6240000  0  0
 23 10 24 17  4  0.6240000  0  0
 23 10 24 17  4  1.6240000  0  0
 23 10 24 17  4  2.6240000  0  0
 23 10 24 17  4  3.6240000  0  0
 23 10 24 17  4  4.6240000  0  0
 23 10 24 17  4  5.6240000  0  0
 23 10 24 17  4  6.6240000  0  0
 23 10 24 17  4  7.6240000  0  0
 23 10 24 17  4  8.6240000  0  0
 23 10 24 17  4  9.6240000  0  0
 23 10 24 17  4 10.6240000  0  0
 23 10 24 17  4 11.6240000  0  0
 23 10 24 17  4 12.6240000  0  0
 23 10 24 17  4 13.6240000  0  0
 23 10 24 17  4 14.6240000  0  0
 23 10 24 17  4 15.6240000  0  0
 23 10 24 17  4 16.6240000  0  0
 23 10 24 17  4 17.6240000  0  0
 23 10 24 17  4 18.6240000  0  0
 23 10 24 17  4 19.6240000  0  0
 23 10 24 17  4 20.6240000  0  0
 23 10 24 17  4 21.6240000  0  0
 23 10 24 17  4 22.6240000  0  0
 23 10 24 17  4 23.6240000  0  0
 23 10 24 17  4 24.6240000  0  0
 23 10 24 17  4 25.6240000  0  0
 23 10 24 17  4 26.6240000  0  0
 23 10 24 17  4 27.6240000  0  0
 23 10 24 17  4 28.6240000  0  0
 23 10 24 17  4 29.6240000  0  0
 23 10 24 17  4 30.6240000  0  0
 23 10 24 17  4 31.6240000  0  0
 23 10 24 17  4 32.6240000  0  0
 23 10 24 17  4 33.6240000  0  0
 23 10 24 17  4 34.6240000  0  0
 23 10 24 17  4 35.6240000  0  0
 23 10 24 17  4 36.6240000  0  0
 23 10 24 17  4 37.6240000  0  0
 23 10 24 17  4 38.6240000  0  0
 23 10 24 17  4 39.6240000  0  0
 23 10 24 17  4 40.6240000  0  0
 23 10 24 17  4 41.6240000  0  0
 23 10 24 17  4 42.6240000  0  0
 23 10 24 17  4 43.6240000  0  0
 23 10 24 17  4 44.6240000  0  0
 23 10 24 17  4 45.6240000  0  0
 23 10 24 17  4 46.6240000  0  0
 23 10 24 17  4 47.6240000  0  0
 23 10 24 17  4 48.6240000  0  0
 23 10 24 17  4 49.6240000  0  0
 23 10 24 17  4 50.6240000  0  0
 23 10 24 17  4 51.6240000  0  0
 23 10 24 17  4 52.6240000  0  0
 23 10 24 17  4 53.6240000  0  0
 23 10 24 17  4 54.6240000  0  0
 23 10 24 17  4 55.6240000  0  0
 23 10 24 17  4 56.6240000  0  0
 23 10 24 17  4 57.6240000  0  0
 23 10 24 17  4 58.6240000  0  0
 23 10 24 17  4 59.6240000  0  0
 23 10 24 17  5  0.6240000  0  0
 23 10 24 17  5  1.6240000  0  0
 23 10 24 17  5  2.6240000  0  0
 23 10 24 17  5  3.6240000  0  0
 23 10 24 17  5  4.6240000  0  0
 23 10 24 17  5  5.6240000  0  0
 23 10 24 17  5  6.6240000  0  0
 23 10 24 17  5  7.6240000  0  0
 23 10 24 17  5  8.6240000  0  0
 23 10 24 17  5  9.6240000  0  0
 23 10 24 17  5 10.6240000  0  0
 23 10 24 17  5 11.6240000  0  0
 23 10 24 17  5 12.6240000  0  0
 23 10 24 17  5 13.6240000  0  0
 23 10 24 17  5 14.6240000  0  0
 23 10 24 17  5 15.6240000  0  0
 23 10 24 17  5 16.6240000  0  0
 23 10 24 17  5 17.6240000  0  0
 23 10 24 17  5 18.6240000  0  0
 23 10 24 17  5 19.6240000  0  0
 23 10 24 17  5 20.6240000  0  0
 23 10 24 17  5 21.6240000  0  0
 23 10 24 17  5 22.6240000  0  0
 23 10 24 17  5 23.6240000  0  0
 23 10 24 17  5 24.6240000  0  0
 23 10 24 17  5 25.6240000  0  0
 23 10 24 17  5 26.6240000  0  0
 23 10 24 17  5 27.6240000  0  0
 23 10 24 17  5 28.6240000  0  0
 23 10 24 17  5 29.6240000  0  0
 23 10 24 17  5 30.6240000  0  0
 23 10 24 17  5 31.6240000  0  0
 23 10 24 17  5 32.6240000  0  0
 23 10 24 17  5 33.6240000  0  0
 23 10 24 17  5 34.6240000  0  0
 23 10 24 17  5 35.6240000  0  0
 23 10 24 17  5 36.6240000  0  0
 23 10 24 17  5 37.6240000  0  0
 23 10 24 17  5 38.6240000  0  0
 23 10 24 17  5 39.6240000  0  0
 23 10 24 17  5 40.6240000  0  0
 23 10 24 17  5 41.6240000  0  0
 23 10 24 17  5 42.6240000  0  0
 23 10 24 17  5 43.6240000  0  0
 23 10 24 17  5 44.6240000  0  0
 23 10 24 17  5 45.6240000  0  0
 23 10 24 17  5 46.6240000  0  0
 23 10 24 17  5 47.6240000  0  0
 23 10 24 17  5 48.6240000  0  0
 23 10 24 17  5 49.6240000  0  0
 23 10 24 17  5 50.6240000  0  0
 23 10 24 17  5 51.6240000  0  0
 23 10 24 17  5 52.6240000  0  0
 23 10 24 17  5 53.6240000  0  0
 23 10 24 17  5 54.6240000  0  0
 23 10 24 17  5 55.6240000  0  0
 23 10 24 17  5 56.6240000  0  0
 23 10 24 17  5 57.6240000  0  0
 23 10 24 17  5 58.6240000  0  0
 23 10 24 17  5 59.6240000  0  0
 23 10 24 17  6  0.6240000  0  0
 23 10 24 17  6  1.6240000  0  0
 23 10 24 17  6  2.6240000  0  0
 23 10 24 17  6  3.6240000  0  0
 23 10 24 17  6  4.6240000  0  0
 23 10 24 17  6  5.6240000  0  0
 23 10 24 17  6  6.6240000  0  0
 23 10 24 17  6  7.6240000  0  0
 23 10 24 17  6  8.6240000  0  0
 23 10 24 17  6  9.6240000  0  0
 23 10 24 17  6 10.6240000  0  0
 23 10 24 17  6 11.6240000  0  0
 23 10 24 17  6 12.6240000  0  0
 23 10 24 17  6 13.6240000  0  0
 23 10 24 17  6 14.6240000  0  0
 23 10 24 17  6 15.6240000  0  0
 23 10 24 17  6 16.6240000  0  0
 23 10 24 17  6 17.6240000  0  0
 23 10 24 17  6 18.6240000  0  0
 23 10 24 17  6 19.6240000  0  0
 23 10 24 17  6 20.6240000  0  0
 23 10 24 17  6 21.6240000  0  0
 23 10 24 17  6 22.6240000  0  0
 23 10 24 17  6 23.6240000  0  0
 23 10 24 17  6 24.6240000  0  0
 23 10 24 17  6 25.6240000  0  0
 23 10 24 17  6 26.6240000  0  0
 23 10 24 17  6 27.6240000  0  0
 23 10 24 17  6 28.6240000  0  0
 23 10 24 17  6 29.6240000  0  0
 23 10 24 17  6 30.6240000  0  0
 23 10 24 17  6 31.6240000  0  0
 23 10 24 17  6 32.6240000  0  0
 23 10 24 17  6 33.6240000  0  0
 23 10 24 17  6 34.6240000  0  0
 23 10 24 17  6 35.6240000  0  0
 23 10 24 17  6 36.6240000  0  0
 23 10 24 17  6 37.6240000  0  0
 23 10 24 17  6 38.6240000  0  0
 23 10 24 17  6 39.6240000  0  0
 23 10 24 17  6 40.6240000  0  0
 23 10 24 17  6 41.6240000  0  0
 23 10 24 17  6 42.6240000  0  0
 23 10 24 17  6 43.6240000  0  0
 23 10 24 17  6 44.6240000  0  0
 23 10 24 17  6 45.6240000  0  0
 23 10 24 17  6 46.6240000  0  0
 23 10 24 17  6 47.6240000  0  0
 23 10 24 17  6 48.6240000  0  0
 23 10 24 17  6 49.6240000  0  0
 23 10 24 17  6 50.6240000  0  0
 23 10 24 17  6 51.6240000  0  0
 23 10 24 17  6 52.6240000  0  0
 23 10 24 17  6 53.6240000  0  0
 23 10 24 17  6 54.6240000  0  0
 23 10 24 17  6 55.6240000  0  0
 23 10 24 17  6 56.6240000  0  0
 23 10 24 17  6 57.6240000  0  0
 23 10 24 17  6 58.6240000  0  0
 23 10 24 17  6 59.6240000  0  0
 23 10 24 17  7  0.6240000  0  0
 23 10 24 17  7  1.6240000  0  0
 23 10 24 17  7  2.6240000  0  0
 23 10 24 17  7  3.6240000  0  0
 23 10 24 17  7  4.6240000  0  0
