     2.10           OBSERVATION DATA    G (GPS)             RINEX VERSION / TYPE
GOGEO               M.KREJ              20231024 152131 UTC PGM / RUN BY / DATE 
COMMENT1                                                    COMMENT             
MARKER1                                                     MARKER NAME         
                                                            MARKER NUMBER       
MKREJ               INNOVA                                  OBSERVER / AGENCY   
RCV1                                                        REC # / TYPE / VERS 
ANT1                                                        ANT # / TYPE        
  3642325.0000  1411093.3420  5025370.3360                  APPROX POSITION XYZ 
        0.0000        0.0000        0.0000                  ANTENNA: DELTA H/E/N
     1     1                                                WAVELENGTH FACT L1/2
     3    C1    L1    S1                                    # / TYPES OF OBSERV 
     1.000                                                  INTERVAL            
  2023    10    21    15    53   19.9560000     GPS         TIME OF FIRST OBS   
  2023    10    21    15    53   19.9560000     GPS         TIME OF LAST OBS    
                                                            END OF HEADER       
 23 10 21 15 53 19.9560000  0  0
 23 10 21 15 53 20.9560000  0  0
 23 10 21 15 53 21.9560000  0  0
 23 10 21 15 53 22.9560000  0  0
 23 10 21 15 53 23.9560000  0  0
 23 10 21 15 53 24.9560000  0  0
 23 10 21 15 53 25.9560000  0  0
 23 10 21 15 53 26.9560000  0  0
 23 10 21 15 53 27.9560000  0  0
 23 10 21 15 53 28.9560000  0  0
 23 10 21 15 53 29.9560000  0  0
 23 10 21 15 53 30.9560000  0  0
 23 10 21 15 53 31.9560000  0  0
 23 10 21 15 53 32.9560000  0  0
 23 10 21 15 53 33.9560000  0  0
 23 10 21 15 53 34.9560000  0  0
 23 10 21 15 53 35.9560000  0  0
 23 10 21 15 53 36.9560000  0  0
 23 10 21 15 53 37.9560000  0  0
 23 10 21 15 53 38.9560000  0  0
 23 10 21 15 53 39.9560000  0  0
 23 10 21 15 53 40.9560000  0  0
 23 10 21 15 53 41.9560000  0  0
 23 10 21 15 53 42.9560000  0  0
 23 10 21 15 53 43.9560000  0  0
 23 10 21 15 53 44.9560000  0  0
 23 10 21 15 53 45.9560000  0  0
 23 10 21 15 53 46.9560000  0  0
 23 10 21 15 53 47.9560000  0  0
 23 10 21 15 53 48.9560000  0  0
 23 10 21 15 53 49.9560000  0  0
 23 10 21 15 53 50.9560000  0  0
 23 10 21 15 53 51.9560000  0  0
 23 10 21 15 53 52.9560000  0  0
 23 10 21 15 53 53.9560000  0  0
 23 10 21 15 53 54.9560000  0  0
 23 10 21 15 53 55.9560000  0  0
 23 10 21 15 53 56.9560000  0  0
 23 10 21 15 53 57.9560000  0  0
 23 10 21 15 53 58.9560000  0  0
 23 10 21 15 53 59.9560000  0  0
 23 10 21 15 54  0.9560000  0  0
 23 10 21 15 54  1.9560000  0  0
 23 10 21 15 54  2.9560000  0  0
 23 10 21 15 54  3.9560000  0  0
 23 10 21 15 54  4.9560000  0  0
 23 10 21 15 54  5.9560000  0  0
 23 10 21 15 54  6.9560000  0  0
 23 10 21 15 54  7.9560000  0  0
 23 10 21 15 54  8.9560000  0  0
 23 10 21 15 54  9.9560000  0  0
 23 10 21 15 54 10.9560000  0  0
 23 10 21 15 54 11.9560000  0  0
 23 10 21 15 54 12.9560000  0  0
 23 10 21 15 54 13.9560000  0  0
 23 10 21 15 54 14.9560000  0  0
 23 10 21 15 54 15.9560000  0  0
 23 10 21 15 54 16.9560000  0  0
 23 10 21 15 54 17.9560000  0  0
 23 10 21 15 54 18.9560000  0  0
 23 10 21 15 54 19.9560000  0  0
 23 10 21 15 54 20.9560000  0  0
 23 10 21 15 54 21.9560000  0  0
 23 10 21 15 54 22.9560000  0  0
 23 10 21 15 54 23.9560000  0  0
 23 10 21 15 54 24.9560000  0  0
 23 10 21 15 54 25.9560000  0  0
 23 10 21 15 54 26.9560000  0  0
 23 10 21 15 54 27.9560000  0  0
 23 10 21 15 54 28.9560000  0  0
 23 10 21 15 54 29.9560000  0  0
 23 10 21 15 54 30.9560000  0  0
 23 10 21 15 54 31.9560000  0  0
 23 10 21 15 54 32.9560000  0  0
 23 10 21 15 54 33.9560000  0  0
 23 10 21 15 54 34.9560000  0  0
 23 10 21 15 54 35.9560000  0  0
 23 10 21 15 54 36.9560000  0  0
 23 10 21 15 54 37.9560000  0  0
 23 10 21 15 54 38.9560000  0  0
 23 10 21 15 54 39.9560000  0  0
 23 10 21 15 54 40.9560000  0  0
 23 10 21 15 54 41.9560000  0  0
 23 10 21 15 54 42.9560000  0  0
 23 10 21 15 54 43.9560000  0  0
 23 10 21 15 54 44.9560000  0  0
 23 10 21 15 54 45.9560000  0  0
 23 10 21 15 54 46.9560000  0  0
 23 10 21 15 54 47.9560000  0  0
 23 10 21 15 54 48.9560000  0  0
 23 10 21 15 54 49.9560000  0  0
 23 10 21 15 54 50.9560000  0  0
 23 10 21 15 54 51.9560000  0  0
 23 10 21 15 54 52.9560000  0  0
 23 10 21 15 54 53.9560000  0  0
 23 10 21 15 54 54.9560000  0  0
 23 10 21 15 54 55.9560000  0  0
 23 10 21 15 54 56.9560000  0  0
 23 10 21 15 54 57.9560000  0  0
 23 10 21 15 54 58.9560000  0  0
 23 10 21 15 54 59.9560000  0  0
 23 10 21 15 55  0.9560000  0  0
 23 10 21 15 55  1.9560000  0  0
 23 10 21 15 55  2.9560000  0  0
 23 10 21 15 55  3.9560000  0  0
 23 10 21 15 55  4.9560000  0  0
 23 10 21 15 55  5.9560000  0  0
 23 10 21 15 55  6.9560000  0  0
 23 10 21 15 55  7.9560000  0  0
 23 10 21 15 55  8.9560000  0  0
 23 10 21 15 55  9.9560000  0  0
 23 10 21 15 55 10.9560000  0  0
 23 10 21 15 55 11.9560000  0  0
 23 10 21 15 55 12.9560000  0  0
 23 10 21 15 55 13.9560000  0  0
 23 10 21 15 55 14.9560000  0  0
 23 10 21 15 55 15.9560000  0  0
 23 10 21 15 55 16.9560000  0  0
 23 10 21 15 55 17.9560000  0  0
 23 10 21 15 55 18.9560000  0  0
 23 10 21 15 55 19.9560000  0  0
 23 10 21 15 55 20.9560000  0  0
 23 10 21 15 55 21.9560000  0  0
 23 10 21 15 55 22.9560000  0  0
 23 10 21 15 55 23.9560000  0  0
 23 10 21 15 55 24.9560000  0  0
 23 10 21 15 55 25.9560000  0  0
 23 10 21 15 55 26.9560000  0  0
 23 10 21 15 55 27.9560000  0  0
 23 10 21 15 55 28.9560000  0  0
 23 10 21 15 55 29.9560000  0  0
 23 10 21 15 55 30.9560000  0  0
 23 10 21 15 55 31.9560000  0  0
 23 10 21 15 55 32.9560000  0  0
 23 10 21 15 55 33.9560000  0  0
 23 10 21 15 55 34.9560000  0  0
 23 10 21 15 55 35.9560000  0  0
 23 10 21 15 55 36.9560000  0  0
 23 10 21 15 55 37.9560000  0  0
 23 10 21 15 55 38.9560000  0  0
 23 10 21 15 55 39.9560000  0  0
 23 10 21 15 55 40.9560000  0  0
 23 10 21 15 55 41.9560000  0  0
 23 10 21 15 55 42.9560000  0  0
 23 10 21 15 55 43.9560000  0  0
 23 10 21 15 55 44.9560000  0  0
 23 10 21 15 55 45.9560000  0  0
 23 10 21 15 55 46.9560000  0  0
 23 10 21 15 55 47.9560000  0  0
 23 10 21 15 55 48.9560000  0  0
 23 10 21 15 55 49.9560000  0  0
 23 10 21 15 55 50.9560000  0  0
 23 10 21 15 55 51.9560000  0  0
 23 10 21 15 55 52.9560000  0  0
 23 10 21 15 55 53.9560000  0  0
 23 10 21 15 55 54.9560000  0  0
 23 10 21 15 55 55.9560000  0  0
 23 10 21 15 55 56.9560000  0  0
 23 10 21 15 55 57.9560000  0  0
 23 10 21 15 55 58.9560000  0  0
 23 10 21 15 55 59.9560000  0  0
 23 10 21 15 56  0.9560000  0  0
 23 10 21 15 56  1.9560000  0  0
 23 10 21 15 56  2.9560000  0  0
 23 10 21 15 56  3.9560000  0  0
 23 10 21 15 56  4.9560000  0  0
 23 10 21 15 56  5.9560000  0  0
 23 10 21 15 56  6.9560000  0  0
 23 10 21 15 56  7.9560000  0  0
 23 10 21 15 56  8.9560000  0  0
 23 10 21 15 56  9.9560000  0  0
 23 10 21 15 56 10.9560000  0  0
 23 10 21 15 56 11.9560000  0  0
 23 10 21 15 56 12.9560000  0  0
 23 10 21 15 56 13.9560000  0  0
 23 10 21 15 56 14.9560000  0  0
 23 10 21 15 56 15.9560000  0  0
 23 10 21 15 56 16.9560000  0  0
 23 10 21 15 56 17.9560000  0  0
 23 10 21 15 56 18.9560000  0  0
 23 10 21 15 56 19.9560000  0  0
 23 10 21 15 56 20.9560000  0  0
 23 10 21 15 56 21.9560000  0  0
 23 10 21 15 56 22.9560000  0  0
 23 10 21 15 56 23.9560000  0  0
 23 10 21 15 56 24.9560000  0  0
 23 10 21 15 56 25.9560000  0  0
 23 10 21 15 56 26.9560000  0  0
 23 10 21 15 56 27.9560000  0  0
 23 10 21 15 56 28.9560000  0  0
 23 10 21 15 56 29.9560000  0  0
 23 10 21 15 56 30.9560000  0  0
 23 10 21 15 56 31.9560000  0  0
 23 10 21 15 56 32.9560000  0  0
 23 10 21 15 56 33.9560000  0  0
 23 10 21 15 56 34.9560000  0  0
 23 10 21 15 56 35.9560000  0  0
 23 10 21 15 56 36.9560000  0  0
 23 10 21 15 56 37.9560000  0  0
 23 10 21 15 56 38.9560000  0  0
 23 10 21 15 56 39.9560000  0  0
 23 10 21 15 56 40.9560000  0  0
 23 10 21 15 56 41.9560000  0  0
 23 10 21 15 56 42.9560000  0  0
 23 10 21 15 56 43.9560000  0  0
 23 10 21 15 56 44.9560000  0  0
 23 10 21 15 56 45.9560000  0  0
 23 10 21 15 56 46.9560000  0  0
 23 10 21 15 56 47.9560000  0  0
 23 10 21 15 56 48.9560000  0  0
 23 10 21 15 56 49.9560000  0  0
 23 10 21 15 56 50.9560000  0  0
 23 10 21 15 56 51.9560000  0  0
 23 10 21 15 56 52.9560000  0  0
 23 10 21 15 56 53.9560000  0  0
 23 10 21 15 56 54.9560000  0  0
 23 10 21 15 56 55.9560000  0  0
 23 10 21 15 56 56.9560000  0  0
 23 10 21 15 56 57.9560000  0  0
 23 10 21 15 56 58.9560000  0  0
 23 10 21 15 56 59.9560000  0  0
 23 10 21 15 57  0.9560000  0  0
 23 10 21 15 57  1.9560000  0  0
 23 10 21 15 57  2.9560000  0  0
 23 10 21 15 57  3.9560000  0  0
 23 10 21 15 57  4.9560000  0  0
 23 10 21 15 57  5.9560000  0  0
 23 10 21 15 57  6.9560000  0  0
 23 10 21 15 57  7.9560000  0  0
 23 10 21 15 57  8.9560000  0  0
 23 10 21 15 57  9.9560000  0  0
 23 10 21 15 57 10.9560000  0  0
 23 10 21 15 57 11.9560000  0  0
 23 10 21 15 57 12.9560000  0  0
 23 10 21 15 57 13.9560000  0  0
 23 10 21 15 57 14.9560000  0  0
 23 10 21 15 57 15.9560000  0  0
 23 10 21 15 57 16.9560000  0  0
 23 10 21 15 57 17.9560000  0  0
 23 10 21 15 57 18.9560000  0  0
 23 10 21 15 57 19.9560000  0  0
 23 10 21 15 57 20.9560000  0  0
 23 10 21 15 57 21.9560000  0  0
 23 10 21 15 57 22.9560000  0  0
 23 10 21 15 57 23.9560000  0  0
 23 10 21 15 57 24.9560000  0  0
 23 10 21 15 57 25.9560000  0  0
 23 10 21 15 57 26.9560000  0  0
 23 10 21 15 57 27.9560000  0  0
 23 10 21 15 57 28.9560000  0  0
 23 10 21 15 57 29.9560000  0  0
 23 10 21 15 57 30.9560000  0  0
 23 10 21 15 57 31.9560000  0  0
 23 10 21 15 57 32.9560000  0  0
 23 10 21 15 57 33.9560000  0  0
 23 10 21 15 57 34.9560000  0  0
 23 10 21 15 57 35.9560000  0  0
 23 10 21 15 57 36.9560000  0  0
 23 10 21 15 57 37.9560000  0  0
 23 10 21 15 57 38.9560000  0  0
 23 10 21 15 57 39.9560000  0  0
 23 10 21 15 57 40.9560000  0  0
 23 10 21 15 57 41.9560000  0  0
 23 10 21 15 57 42.9560000  0  0
 23 10 21 15 57 43.9560000  0  0
 23 10 21 15 57 44.9560000  0  0
 23 10 21 15 57 45.9560000  0  0
 23 10 21 15 57 46.9560000  0  0
 23 10 21 15 57 47.9560000  0  0
 23 10 21 15 57 48.9560000  0  0
 23 10 21 15 57 49.9560000  0  0
 23 10 21 15 57 50.9560000  0  0
 23 10 21 15 57 51.9560000  0  0
 23 10 21 15 57 52.9560000  0  0
 23 10 21 15 57 53.9560000  0  0
 23 10 21 15 57 54.9560000  0  0
 23 10 21 15 57 55.9560000  0  0
 23 10 21 15 57 56.9560000  0  0
 23 10 21 15 57 57.9560000  0  0
 23 10 21 15 57 58.9560000  0  0
 23 10 21 15 57 59.9560000  0  0
 23 10 21 15 58  0.9560000  0  0
 23 10 21 15 58  1.9560000  0  0
 23 10 21 15 58  2.9560000  0  0
 23 10 21 15 58  3.9560000  0  0
 23 10 21 15 58  4.9560000  0  0
 23 10 21 15 58  5.9560000  0  0
 23 10 21 15 58  6.9560000  0  0
 23 10 21 15 58  7.9560000  0  0
 23 10 21 15 58  8.9560000  0  0
 23 10 21 15 58  9.9560000  0  0
 23 10 21 15 58 10.9560000  0  0
 23 10 21 15 58 11.9560000  0  0
 23 10 21 15 58 12.9560000  0  0
 23 10 21 15 58 13.9560000  0  0
 23 10 21 15 58 14.9560000  0  0
 23 10 21 15 58 15.9560000  0  0
 23 10 21 15 58 16.9560000  0  0
 23 10 21 15 58 17.9560000  0  0
 23 10 21 15 58 18.9560000  0  0
 23 10 21 15 58 19.9560000  0  0
 23 10 21 15 58 20.9560000  0  0
 23 10 21 15 58 21.9560000  0  0
 23 10 21 15 58 22.9560000  0  0
 23 10 21 15 58 23.9560000  0  0
 23 10 21 15 58 24.9560000  0  0
 23 10 21 15 58 25.9560000  0  0
 23 10 21 15 58 26.9560000  0  0
 23 10 21 15 58 27.9560000  0  0
 23 10 21 15 58 28.9560000  0  0
 23 10 21 15 58 29.9560000  0  0
 23 10 21 15 58 30.9560000  0  0
 23 10 21 15 58 31.9560000  0  0
 23 10 21 15 58 32.9560000  0  0
 23 10 21 15 58 33.9560000  0  0
 23 10 21 15 58 34.9560000  0  0
 23 10 21 15 58 35.9560000  0  0
 23 10 21 15 58 36.9560000  0  0
 23 10 21 15 58 37.9560000  0  0
 23 10 21 15 58 38.9560000  0  0
 23 10 21 15 58 39.9560000  0  0
 23 10 21 15 58 40.9560000  0  0
 23 10 21 15 58 41.9560000  0  0
 23 10 21 15 58 42.9560000  0  0
 23 10 21 15 58 43.9560000  0  0
 23 10 21 15 58 44.9560000  0  0
 23 10 21 15 58 45.9560000  0  0
 23 10 21 15 58 46.9560000  0  0
 23 10 21 15 58 47.9560000  0  0
 23 10 21 15 58 48.9560000  0  0
 23 10 21 15 58 49.9560000  0  0
 23 10 21 15 58 50.9560000  0  0
 23 10 21 15 58 51.9560000  0  0
 23 10 21 15 58 52.9560000  0  0
 23 10 21 15 58 53.9560000  0  0
 23 10 21 15 58 54.9560000  0  0
 23 10 21 15 58 55.9560000  0  0
 23 10 21 15 58 56.9560000  0  0
 23 10 21 15 58 57.9560000  0  0
 23 10 21 15 58 58.9560000  0  0
 23 10 21 15 58 59.9560000  0  0
 23 10 21 15 59  0.9560000  0  0
 23 10 21 15 59  1.9560000  0  0
 23 10 21 15 59  2.9560000  0  0
 23 10 21 15 59  3.9560000  0  0
 23 10 21 15 59  4.9560000  0  0
 23 10 21 15 59  5.9560000  0  0
 23 10 21 15 59  6.9560000  0  0
 23 10 21 15 59  7.9560000  0  0
 23 10 21 15 59  8.9560000  0  0
 23 10 21 15 59  9.9560000  0  0
 23 10 21 15 59 10.9560000  0  0
 23 10 21 15 59 11.9560000  0  0
 23 10 21 15 59 12.9560000  0  0
 23 10 21 15 59 13.9560000  0  0
 23 10 21 15 59 14.9560000  0  0
 23 10 21 15 59 15.9560000  0  0
 23 10 21 15 59 16.9560000  0  0
 23 10 21 15 59 17.9560000  0  0
 23 10 21 15 59 18.9560000  0  0
 23 10 21 15 59 19.9560000  0  0
 23 10 21 15 59 20.9560000  0  0
 23 10 21 15 59 21.9560000  0  0
 23 10 21 15 59 22.9560000  0  0
 23 10 21 15 59 23.9560000  0  0
 23 10 21 15 59 24.9560000  0  0
 23 10 21 15 59 25.9560000  0  0
 23 10 21 15 59 26.9560000  0  0
 23 10 21 15 59 27.9560000  0  0
 23 10 21 15 59 28.9560000  0  0
 23 10 21 15 59 29.9560000  0  0
 23 10 21 15 59 30.9560000  0  0
 23 10 21 15 59 31.9560000  0  0
 23 10 21 15 59 32.9560000  0  0
 23 10 21 15 59 33.9560000  0  0
 23 10 21 15 59 34.9560000  0  0
 23 10 21 15 59 35.9560000  0  0
 23 10 21 15 59 36.9560000  0  0
 23 10 21 15 59 37.9560000  0  0
 23 10 21 15 59 38.9560000  0  0
 23 10 21 15 59 39.9560000  0  0
 23 10 21 15 59 40.9560000  0  0
 23 10 21 15 59 41.9560000  0  0
 23 10 21 15 59 42.9560000  0  0
 23 10 21 15 59 43.9560000  0  0
 23 10 21 15 59 44.9560000  0  0
 23 10 21 15 59 45.9560000  0  0
 23 10 21 15 59 46.9560000  0  0
 23 10 21 15 59 47.9560000  0  0
 23 10 21 15 59 48.9560000  0  0
 23 10 21 15 59 49.9560000  0  0
 23 10 21 15 59 50.9560000  0  0
 23 10 21 15 59 51.9560000  0  0
 23 10 21 15 59 52.9560000  0  0
 23 10 21 15 59 53.9560000  0  0
 23 10 21 15 59 54.9560000  0  0
 23 10 21 15 59 55.9560000  0  0
 23 10 21 15 59 56.9560000  0  0
 23 10 21 15 59 57.9560000  0  0
 23 10 21 15 59 58.9560000  0  0
 23 10 21 15 59 59.9560000  0  0
 23 10 21 16  0  0.9560000  0  0
 23 10 21 16  0  1.9560000  0  0
 23 10 21 16  0  2.9560000  0  0
 23 10 21 16  0  3.9560000  0  0
 23 10 21 16  0  4.9560000  0  0
 23 10 21 16  0  5.9560000  0  0
 23 10 21 16  0  6.9560000  0  0
 23 10 21 16  0  7.9560000  0  0
 23 10 21 16  0  8.9560000  0  0
 23 10 21 16  0  9.9560000  0  0
 23 10 21 16  0 10.9560000  0  0
 23 10 21 16  0 11.9560000  0  0
 23 10 21 16  0 12.9560000  0  0
 23 10 21 16  0 13.9560000  0  0
 23 10 21 16  0 14.9560000  0  0
 23 10 21 16  0 15.9560000  0  0
 23 10 21 16  0 16.9560000  0  0
 23 10 21 16  0 17.9560000  0  0
 23 10 21 16  0 18.9560000  0  0
 23 10 21 16  0 19.9560000  0  0
 23 10 21 16  0 20.9560000  0  0
 23 10 21 16  0 21.9560000  0  0
 23 10 21 16  0 22.9560000  0  0
 23 10 21 16  0 23.9560000  0  0
 23 10 21 16  0 24.9560000  0  0
 23 10 21 16  0 25.9560000  0  0
 23 10 21 16  0 26.9560000  0  0
 23 10 21 16  0 27.9560000  0  0
 23 10 21 16  0 28.9560000  0  0
 23 10 21 16  0 29.9560000  0  0
 23 10 21 16  0 30.9560000  0  0
 23 10 21 16  0 31.9560000  0  0
 23 10 21 16  0 32.9560000  0  0
 23 10 21 16  0 33.9560000  0  0
 23 10 21 16  0 34.9560000  0  0
 23 10 21 16  0 35.9560000  0  0
 23 10 21 16  0 36.9560000  0  0
 23 10 21 16  0 37.9560000  0  0
 23 10 21 16  0 38.9560000  0  0
 23 10 21 16  0 39.9560000  0  0
 23 10 21 16  0 40.9560000  0  0
 23 10 21 16  0 41.9560000  0  0
 23 10 21 16  0 42.9560000  0  0
 23 10 21 16  0 43.9560000  0  0
 23 10 21 16  0 44.9560000  0  0
 23 10 21 16  0 45.9560000  0  0
 23 10 21 16  0 46.9560000  0  0
 23 10 21 16  0 47.9560000  0  0
 23 10 21 16  0 48.9560000  0  0
 23 10 21 16  0 49.9560000  0  0
 23 10 21 16  0 50.9560000  0  0
 23 10 21 16  0 51.9560000  0  0
 23 10 21 16  0 52.9560000  0  0
 23 10 21 16  0 53.9560000  0  0
 23 10 21 16  0 54.9560000  0  0
 23 10 21 16  0 55.9560000  0  0
 23 10 21 16  0 56.9560000  0  0
 23 10 21 16  0 57.9560000  0  0
 23 10 21 16  0 58.9560000  0  0
 23 10 21 16  0 59.9560000  0  0
 23 10 21 16  1  0.9560000  0  0
 23 10 21 16  1  1.9560000  0  0
 23 10 21 16  1  2.9560000  0  0
 23 10 21 16  1  3.9560000  0  0
 23 10 21 16  1  4.9560000  0  0
 23 10 21 16  1  5.9560000  0  0
 23 10 21 16  1  6.9560000  0  0
 23 10 21 16  1  7.9560000  0  0
 23 10 21 16  1  8.9560000  0  0
 23 10 21 16  1  9.9560000  0  0
 23 10 21 16  1 10.9560000  0  0
 23 10 21 16  1 11.9560000  0  0
 23 10 21 16  1 12.9560000  0  0
 23 10 21 16  1 13.9560000  0  0
 23 10 21 16  1 14.9560000  0  0
 23 10 21 16  1 15.9560000  0  0
 23 10 21 16  1 16.9560000  0  0
 23 10 21 16  1 17.9560000  0  0
 23 10 21 16  1 18.9560000  0  0
 23 10 21 16  1 19.9560000  0  0
 23 10 21 16  1 20.9560000  0  0
 23 10 21 16  1 21.9560000  0  0
 23 10 21 16  1 22.9560000  0  0
 23 10 21 16  1 23.9560000  0  0
 23 10 21 16  1 24.9560000  0  0
 23 10 21 16  1 25.9560000  0  0
 23 10 21 16  1 26.9560000  0  0
 23 10 21 16  1 27.9560000  0  0
 23 10 21 16  1 28.9560000  0  0
 23 10 21 16  1 29.9560000  0  0
 23 10 21 16  1 30.9560000  0  0
 23 10 21 16  1 31.9560000  0  0
 23 10 21 16  1 32.9560000  0  0
 23 10 21 16  1 33.9560000  0  0
 23 10 21 16  1 34.9560000  0  0
 23 10 21 16  1 35.9560000  0  0
 23 10 21 16  1 36.9560000  0  0
 23 10 21 16  1 37.9560000  0  0
 23 10 21 16  1 38.9560000  0  0
 23 10 21 16  1 39.9560000  0  0
 23 10 21 16  1 40.9560000  0  0
 23 10 21 16  1 41.9560000  0  0
 23 10 21 16  1 42.9560000  0  0
 23 10 21 16  1 43.9560000  0  0
 23 10 21 16  1 44.9560000  0  0
 23 10 21 16  1 45.9560000  0  0
 23 10 21 16  1 46.9560000  0  0
 23 10 21 16  1 47.9560000  0  0
 23 10 21 16  1 48.9560000  0  0
 23 10 21 16  1 49.9560000  0  0
 23 10 21 16  1 50.9560000  0  0
 23 10 21 16  1 51.9560000  0  0
 23 10 21 16  1 52.9560000  0  0
 23 10 21 16  1 53.9560000  0  0
 23 10 21 16  1 54.9560000  0  0
 23 10 21 16  1 55.9560000  0  0
 23 10 21 16  1 56.9560000  0  0
 23 10 21 16  1 57.9560000  0  0
 23 10 21 16  1 58.9560000  0  0
 23 10 21 16  1 59.9560000  0  0
 23 10 21 16  2  0.9560000  0  0
 23 10 21 16  2  1.9560000  0  0
 23 10 21 16  2  2.9560000  0  0
 23 10 21 16  2  3.9560000  0  0
 23 10 21 16  2  4.9560000  0  0
 23 10 21 16  2  5.9560000  0  0
 23 10 21 16  2  6.9560000  0  0
 23 10 21 16  2  7.9560000  0  0
 23 10 21 16  2  8.9560000  0  0
 23 10 21 16  2  9.9560000  0  0
 23 10 21 16  2 10.9560000  0  0
 23 10 21 16  2 11.9560000  0  0
 23 10 21 16  2 12.9560000  0  0
 23 10 21 16  2 13.9560000  0  0
 23 10 21 16  2 14.9560000  0  0
 23 10 21 16  2 15.9560000  0  0
 23 10 21 16  2 16.9560000  0  0
 23 10 21 16  2 17.9560000  0  0
 23 10 21 16  2 18.9560000  0  0
 23 10 21 16  2 19.9560000  0  0
 23 10 21 16  2 20.9560000  0  0
 23 10 21 16  2 21.9560000  0  0
 23 10 21 16  2 22.9560000  0  0
 23 10 21 16  2 23.9560000  0  0
 23 10 21 16  2 24.9560000  0  0
 23 10 21 16  2 25.9560000  0  0
 23 10 21 16  2 26.9560000  0  0
 23 10 21 16  2 27.9560000  0  0
 23 10 21 16  2 28.9560000  0  0
 23 10 21 16  2 29.9560000  0  0
 23 10 21 16  2 30.9560000  0  0
 23 10 21 16  2 31.9560000  0  0
 23 10 21 16  2 32.9560000  0  0
 23 10 21 16  2 33.9560000  0  0
 23 10 21 16  2 34.9560000  0  0
 23 10 21 16  2 35.9560000  0  0
 23 10 21 16  2 36.9560000  0  0
 23 10 21 16  2 37.9560000  0  0
 23 10 21 16  2 38.9560000  0  0
 23 10 21 16  2 39.9560000  0  0
 23 10 21 16  2 40.9560000  0  0
 23 10 21 16  2 41.9560000  0  0
 23 10 21 16  2 42.9560000  0  0
 23 10 21 16  2 43.9560000  0  0
 23 10 21 16  2 44.9560000  0  0
 23 10 21 16  2 45.9560000  0  0
 23 10 21 16  2 46.9560000  0  0
 23 10 21 16  2 47.9560000  0  0
 23 10 21 16  2 48.9560000  0  0
 23 10 21 16  2 49.9560000  0  0
 23 10 21 16  2 50.9560000  0  0
 23 10 21 16  2 51.9560000  0  0
 23 10 21 16  2 52.9560000  0  0
 23 10 21 16  2 53.9560000  0  0
 23 10 21 16  2 54.9560000  0  0
 23 10 21 16  2 55.9560000  0  0
 23 10 21 16  2 56.9560000  0  0
 23 10 21 16  2 57.9560000  0  0
 23 10 21 16  2 58.9560000  0  0
 23 10 21 16  2 59.9560000  0  0
 23 10 21 16  3  0.9560000  0  0
 23 10 21 16  3  1.9560000  0  0
 23 10 21 16  3  2.9560000  0  0
 23 10 21 16  3  3.9560000  0  0
 23 10 21 16  3  4.9560000  0  0
 23 10 21 16  3  5.9560000  0  0
 23 10 21 16  3  6.9560000  0  0
 23 10 21 16  3  7.9560000  0  0
 23 10 21 16  3  8.9560000  0  0
 23 10 21 16  3  9.9560000  0  0
 23 10 21 16  3 10.9560000  0  0
 23 10 21 16  3 11.9560000  0  0
 23 10 21 16  3 12.9560000  0  0
 23 10 21 16  3 13.9560000  0  0
 23 10 21 16  3 14.9560000  0  0
 23 10 21 16  3 15.9560000  0  0
 23 10 21 16  3 16.9560000  0  0
 23 10 21 16  3 17.9560000  0  0
 23 10 21 16  3 18.9560000  0  0
 23 10 21 16  3 19.9560000  0  0
 23 10 21 16  3 20.9560000  0  0
 23 10 21 16  3 21.9560000  0  0
 23 10 21 16  3 22.9560000  0  0
 23 10 21 16  3 23.9560000  0  0
 23 10 21 16  3 24.9560000  0  0
 23 10 21 16  3 25.9560000  0  0
 23 10 21 16  3 26.9560000  0  0
 23 10 21 16  3 27.9560000  0  0
 23 10 21 16  3 28.9560000  0  0
 23 10 21 16  3 29.9560000  0  0
 23 10 21 16  3 30.9560000  0  0
 23 10 21 16  3 31.9560000  0  0
 23 10 21 16  3 32.9560000  0  0
 23 10 21 16  3 33.9560000  0  0
 23 10 21 16  3 34.9560000  0  0
 23 10 21 16  3 35.9560000  0  0
 23 10 21 16  3 36.9560000  0  0
 23 10 21 16  3 37.9560000  0  0
 23 10 21 16  3 38.9560000  0  0
 23 10 21 16  3 39.9560000  0  0
 23 10 21 16  3 40.9560000  0  0
 23 10 21 16  3 41.9560000  0  0
 23 10 21 16  3 42.9560000  0  0
 23 10 21 16  3 43.9560000  0  0
 23 10 21 16  3 44.9560000  0  0
 23 10 21 16  3 45.9560000  0  0
 23 10 21 16  3 46.9560000  0  0
 23 10 21 16  3 47.9560000  0  0
 23 10 21 16  3 48.9560000  0  0
 23 10 21 16  3 49.9560000  0  0
 23 10 21 16  3 50.9560000  0  0
 23 10 21 16  3 51.9560000  0  0
 23 10 21 16  3 52.9560000  0  0
 23 10 21 16  3 53.9560000  0  0
 23 10 21 16  3 54.9560000  0  0
 23 10 21 16  3 55.9560000  0  0
 23 10 21 16  3 56.9560000  0  0
 23 10 21 16  3 57.9560000  0  0
 23 10 21 16  3 58.9560000  0  0
 23 10 21 16  3 59.9560000  0  0
 23 10 21 16  4  0.9560000  0  0
 23 10 21 16  4  1.9560000  0  0
 23 10 21 16  4  2.9560000  0  0
 23 10 21 16  4  3.9560000  0  0
 23 10 21 16  4  4.9560000  0  0
 23 10 21 16  4  5.9560000  0  0
 23 10 21 16  4  6.9560000  0  0
 23 10 21 16  4  7.9560000  0  0
 23 10 21 16  4  8.9560000  0  0
 23 10 21 16  4  9.9560000  0  0
 23 10 21 16  4 10.9560000  0  0
 23 10 21 16  4 11.9560000  0  0
 23 10 21 16  4 12.9560000  0  0
 23 10 21 16  4 13.9560000  0  0
 23 10 21 16  4 14.9560000  0  0
 23 10 21 16  4 15.9560000  0  0
 23 10 21 16  4 16.9560000  0  0
 23 10 21 16  4 17.9560000  0  0
 23 10 21 16  4 18.9560000  0  0
 23 10 21 16  4 19.9560000  0  0
 23 10 21 16  4 20.9560000  0  0
 23 10 21 16  4 21.9560000  0  0
 23 10 21 16  4 22.9560000  0  0
 23 10 21 16  4 23.9560000  0  0
 23 10 21 16  4 24.9560000  0  0
 23 10 21 16  4 25.9560000  0  0
 23 10 21 16  4 26.9560000  0  0
 23 10 21 16  4 27.9560000  0  0
 23 10 21 16  4 28.9560000  0  0
 23 10 21 16  4 29.9560000  0  0
 23 10 21 16  4 30.9560000  0  0
 23 10 21 16  4 31.9560000  0  0
 23 10 21 16  4 32.9560000  0  0
 23 10 21 16  4 33.9560000  0  0
 23 10 21 16  4 34.9560000  0  0
 23 10 21 16  4 35.9560000  0  0
 23 10 21 16  4 36.9560000  0  0
 23 10 21 16  4 37.9560000  0  0
 23 10 21 16  4 38.9560000  0  0
 23 10 21 16  4 39.9560000  0  0
 23 10 21 16  4 40.9560000  0  0
 23 10 21 16  4 41.9560000  0  0
 23 10 21 16  4 42.9560000  0  0
 23 10 21 16  4 43.9560000  0  0
 23 10 21 16  4 44.9560000  0  0
 23 10 21 16  4 45.9560000  0  0
 23 10 21 16  4 46.9560000  0  0
 23 10 21 16  4 47.9560000  0  0
 23 10 21 16  4 48.9560000  0  0
 23 10 21 16  4 49.9560000  0  0
 23 10 21 16  4 50.9560000  0  0
 23 10 21 16  4 51.9560000  0  0
 23 10 21 16  4 52.9560000  0  0
 23 10 21 16  4 53.9560000  0  0
 23 10 21 16  4 54.9560000  0  0
 23 10 21 16  4 55.9560000  0  0
 23 10 21 16  4 56.9560000  0  0
 23 10 21 16  4 57.9560000  0  0
 23 10 21 16  4 58.9560000  0  0
 23 10 21 16  4 59.9560000  0  0
 23 10 21 16  5  0.9560000  0  0
 23 10 21 16  5  1.9560000  0  0
 23 10 21 16  5  2.9560000  0  0
 23 10 21 16  5  3.9560000  0  0
 23 10 21 16  5  4.9560000  0  0
 23 10 21 16  5  5.9560000  0  0
 23 10 21 16  5  6.9560000  0  0
 23 10 21 16  5  7.9560000  0  0
 23 10 21 16  5  8.9560000  0  0
 23 10 21 16  5  9.9560000  0  0
 23 10 21 16  5 10.9560000  0  0
 23 10 21 16  5 11.9560000  0  0
 23 10 21 16  5 12.9560000  0  0
 23 10 21 16  5 13.9560000  0  0
 23 10 21 16  5 14.9560000  0  0
 23 10 21 16  5 15.9560000  0  0
 23 10 21 16  5 16.9560000  0  0
 23 10 21 16  5 17.9560000  0  0
 23 10 21 16  5 18.9560000  0  0
 23 10 21 16  5 19.9560000  0  0
 23 10 21 16  5 20.9560000  0  0
 23 10 21 16  5 21.9560000  0  0
 23 10 21 16  5 22.9560000  0  0
 23 10 21 16  5 23.9560000  0  0
 23 10 21 16  5 24.9560000  0  0
 23 10 21 16  5 25.9560000  0  0
 23 10 21 16  5 26.9560000  0  0
 23 10 21 16  5 27.9560000  0  0
 23 10 21 16  5 28.9560000  0  0
 23 10 21 16  5 29.9560000  0  0
 23 10 21 16  5 30.9560000  0  0
 23 10 21 16  5 31.9560000  0  0
 23 10 21 16  5 32.9560000  0  0
 23 10 21 16  5 33.9560000  0  0
 23 10 21 16  5 34.9560000  0  0
 23 10 21 16  5 35.9560000  0  0
 23 10 21 16  5 36.9560000  0  0
 23 10 21 16  5 37.9560000  0  0
 23 10 21 16  5 38.9560000  0  0
 23 10 21 16  5 39.9560000  0  0
 23 10 21 16  5 40.9560000  0  0
 23 10 21 16  5 41.9560000  0  0
 23 10 21 16  5 42.9560000  0  0
 23 10 21 16  5 43.9560000  0  0
 23 10 21 16  5 44.9560000  0  0
 23 10 21 16  5 45.9560000  0  0
 23 10 21 16  5 46.9560000  0  0
 23 10 21 16  5 47.9560000  0  0
 23 10 21 16  5 48.9560000  0  0
 23 10 21 16  5 49.9560000  0  0
 23 10 21 16  5 50.9560000  0  0
 23 10 21 16  5 51.9560000  0  0
 23 10 21 16  5 52.9560000  0  0
 23 10 21 16  5 53.9560000  0  0
 23 10 21 16  5 54.9560000  0  0
 23 10 21 16  5 55.9560000  0  0
 23 10 21 16  5 56.9560000  0  0
 23 10 21 16  5 57.9560000  0  0
 23 10 21 16  5 58.9560000  0  0
 23 10 21 16  5 59.9560000  0  0
 23 10 21 16  6  0.9560000  0  0
 23 10 21 16  6  1.9560000  0  0
 23 10 21 16  6  2.9560000  0  0
 23 10 21 16  6  3.9560000  0  0
 23 10 21 16  6  4.9560000  0  0
 23 10 21 16  6  5.9560000  0  0
 23 10 21 16  6  6.9560000  0  0
 23 10 21 16  6  7.9560000  0  0
 23 10 21 16  6  8.9560000  0  0
 23 10 21 16  6  9.9560000  0  0
 23 10 21 16  6 10.9560000  0  0
 23 10 21 16  6 11.9560000  0  0
 23 10 21 16  6 12.9560000  0  0
 23 10 21 16  6 13.9560000  0  0
 23 10 21 16  6 14.9560000  0  0
 23 10 21 16  6 15.9560000  0  0
 23 10 21 16  6 16.9560000  0  0
 23 10 21 16  6 17.9560000  0  0
 23 10 21 16  6 18.9560000  0  0
 23 10 21 16  6 19.9560000  0  0
 23 10 21 16  6 20.9560000  0  0
 23 10 21 16  6 21.9560000  0  0
 23 10 21 16  6 22.9560000  0  0
 23 10 21 16  6 23.9560000  0  0
 23 10 21 16  6 24.9560000  0  0
 23 10 21 16  6 25.9560000  0  0
 23 10 21 16  6 26.9560000  0  0
 23 10 21 16  6 27.9560000  0  0
 23 10 21 16  6 28.9560000  0  0
 23 10 21 16  6 29.9560000  0  0
 23 10 21 16  6 30.9560000  0  0
 23 10 21 16  6 31.9560000  0  0
 23 10 21 16  6 32.9560000  0  0
 23 10 21 16  6 33.9560000  0  0
 23 10 21 16  6 34.9560000  0  0
 23 10 21 16  6 35.9560000  0  0
 23 10 21 16  6 36.9560000  0  0
 23 10 21 16  6 37.9560000  0  0
 23 10 21 16  6 38.9560000  0  0
 23 10 21 16  6 39.9560000  0  0
 23 10 21 16  6 40.9560000  0  0
 23 10 21 16  6 41.9560000  0  0
 23 10 21 16  6 42.9560000  0  0
 23 10 21 16  6 43.9560000  0  0
 23 10 21 16  6 44.9560000  0  0
 23 10 21 16  6 45.9560000  0  0
 23 10 21 16  6 46.9560000  0  0
 23 10 21 16  6 47.9560000  0  0
 23 10 21 16  6 48.9560000  0  0
 23 10 21 16  6 49.9560000  0  0
 23 10 21 16  6 50.9560000  0  0
 23 10 21 16  6 51.9560000  0  0
 23 10 21 16  6 52.9560000  0  0
 23 10 21 16  6 53.9560000  0  0
 23 10 21 16  6 54.9560000  0  0
 23 10 21 16  6 55.9560000  0  0
 23 10 21 16  6 56.9560000  0  0
 23 10 21 16  6 57.9560000  0  0
 23 10 21 16  6 58.9560000  0  0
 23 10 21 16  6 59.9560000  0  0
 23 10 21 16  7  0.9560000  0  0
 23 10 21 16  7  1.9560000  0  0
 23 10 21 16  7  2.9560000  0  0
 23 10 21 16  7  3.9560000  0  0
 23 10 21 16  7  4.9560000  0  0
 23 10 21 16  7  5.9560000  0  0
 23 10 21 16  7  6.9560000  0  0
 23 10 21 16  7  7.9560000  0  0
 23 10 21 16  7  8.9560000  0  0
 23 10 21 16  7  9.9560000  0  0
 23 10 21 16  7 10.9560000  0  0
 23 10 21 16  7 11.9560000  0  0
 23 10 21 16  7 12.9560000  0  0
 23 10 21 16  7 13.9560000  0  0
 23 10 21 16  7 14.9560000  0  0
 23 10 21 16  7 15.9560000  0  0
 23 10 21 16  7 16.9560000  0  0
 23 10 21 16  7 17.9560000  0  0
 23 10 21 16  7 18.9560000  0  0
 23 10 21 16  7 19.9560000  0  0
 23 10 21 16  7 20.9560000  0  0
 23 10 21 16  7 21.9560000  0  0
 23 10 21 16  7 22.9560000  0  0
 23 10 21 16  7 23.9560000  0  0
 23 10 21 16  7 24.9560000  0  0
 23 10 21 16  7 25.9560000  0  0
 23 10 21 16  7 26.9560000  0  0
 23 10 21 16  7 27.9560000  0  0
 23 10 21 16  7 28.9560000  0  0
 23 10 21 16  7 29.9560000  0  0
 23 10 21 16  7 30.9560000  0  0
 23 10 21 16  7 31.9560000  0  0
 23 10 21 16  7 32.9560000  0  0
 23 10 21 16  7 33.9560000  0  0
 23 10 21 16  7 34.9560000  0  0
 23 10 21 16  7 35.9560000  0  0
 23 10 21 16  7 36.9560000  0  0
 23 10 21 16  7 37.9560000  0  0
 23 10 21 16  7 38.9560000  0  0
 23 10 21 16  7 39.9560000  0  0
 23 10 21 16  7 40.9560000  0  0
 23 10 21 16  7 41.9560000  0  0
 23 10 21 16  7 42.9560000  0  0
 23 10 21 16  7 43.9560000  0  0
 23 10 21 16  7 44.9560000  0  0
 23 10 21 16  7 45.9560000  0  0
 23 10 21 16  7 46.9560000  0  0
 23 10 21 16  7 47.9560000  0  0
 23 10 21 16  7 48.9560000  0  0
 23 10 21 16  7 49.9560000  0  0
 23 10 21 16  7 50.9560000  0  0
 23 10 21 16  7 51.9560000  0  0
 23 10 21 16  7 52.9560000  0  0
 23 10 21 16  7 53.9560000  0  0
 23 10 21 16  7 54.9560000  0  0
 23 10 21 16  7 55.9560000  0  0
 23 10 21 16  7 56.9560000  0  0
 23 10 21 16  7 57.9560000  0  0
 23 10 21 16  7 58.9560000  0  0
 23 10 21 16  7 59.9560000  0  0
 23 10 21 16  8  0.9560000  0  0
 23 10 21 16  8  1.9560000  0  0
 23 10 21 16  8  2.9560000  0  0
 23 10 21 16  8  3.9560000  0  0
 23 10 21 16  8  4.9560000  0  0
 23 10 21 16  8  5.9560000  0  0
 23 10 21 16  8  6.9560000  0  0
 23 10 21 16  8  7.9560000  0  0
 23 10 21 16  8  8.9560000  0  0
 23 10 21 16  8  9.9560000  0  0
 23 10 21 16  8 10.9560000  0  0
 23 10 21 16  8 11.9560000  0  0
 23 10 21 16  8 12.9560000  0  0
 23 10 21 16  8 13.9560000  0  0
 23 10 21 16  8 14.9560000  0  0
 23 10 21 16  8 15.9560000  0  0
 23 10 21 16  8 16.9560000  0  0
 23 10 21 16  8 17.9560000  0  0
 23 10 21 16  8 18.9560000  0  0
 23 10 21 16  8 19.9560000  0  0
 23 10 21 16  8 20.9560000  0  0
 23 10 21 16  8 21.9560000  0  0
 23 10 21 16  8 22.9560000  0  0
 23 10 21 16  8 23.9560000  0  0
 23 10 21 16  8 24.9560000  0  0
 23 10 21 16  8 25.9560000  0  0
 23 10 21 16  8 26.9560000  0  0
 23 10 21 16  8 27.9560000  0  0
 23 10 21 16  8 28.9560000  0  0
 23 10 21 16  8 29.9560000  0  0
 23 10 21 16  8 30.9560000  0  0
 23 10 21 16  8 31.9560000  0  0
 23 10 21 16  8 32.9560000  0  0
 23 10 21 16  8 33.9560000  0  0
 23 10 21 16  8 34.9560000  0  0
 23 10 21 16  8 35.9560000  0  0
 23 10 21 16  8 36.9560000  0  0
 23 10 21 16  8 37.9560000  0  0
 23 10 21 16  8 38.9560000  0  0
 23 10 21 16  8 39.9560000  0  0
 23 10 21 16  8 40.9560000  0  0
 23 10 21 16  8 41.9560000  0  0
 23 10 21 16  8 42.9560000  0  0
 23 10 21 16  8 43.9560000  0  0
 23 10 21 16  8 44.9560000  0  0
 23 10 21 16  8 45.9560000  0  0
 23 10 21 16  8 46.9560000  0  0
 23 10 21 16  8 47.9560000  0  0
 23 10 21 16  8 48.9560000  0  0
 23 10 21 16  8 49.9560000  0  0
 23 10 21 16  8 50.9560000  0  0
 23 10 21 16  8 51.9560000  0  0
 23 10 21 16  8 52.9560000  0  0
 23 10 21 16  8 53.9560000  0  0
 23 10 21 16  8 54.9560000  0  0
 23 10 21 16  8 55.9560000  0  0
 23 10 21 16  8 56.9560000  0  0
 23 10 21 16  8 57.9560000  0  0
 23 10 21 16  8 58.9560000  0  0
 23 10 21 16  8 59.9560000  0  0
 23 10 21 16  9  0.9560000  0  0
 23 10 21 16  9  1.9560000  0  0
 23 10 21 16  9  2.9560000  0  0
 23 10 21 16  9  3.9560000  0  0
 23 10 21 16  9  4.9560000  0  0
 23 10 21 16  9  5.9560000  0  0
 23 10 21 16  9  6.9560000  0  0
 23 10 21 16  9  7.9560000  0  0
 23 10 21 16  9  8.9560000  0  0
 23 10 21 16  9  9.9560000  0  0
 23 10 21 16  9 10.9560000  0  0
 23 10 21 16  9 11.9560000  0  0
 23 10 21 16  9 12.9560000  0  0
 23 10 21 16  9 13.9560000  0  0
 23 10 21 16  9 14.9560000  0  0
 23 10 21 16  9 15.9560000  0  0
 23 10 21 16  9 16.9560000  0  0
 23 10 21 16  9 17.9560000  0  0
 23 10 21 16  9 18.9560000  0  0
 23 10 21 16  9 19.9560000  0  0
 23 10 21 16  9 20.9560000  0  0
 23 10 21 16  9 21.9560000  0  0
 23 10 21 16  9 22.9560000  0  0
 23 10 21 16  9 23.9560000  0  0
 23 10 21 16  9 24.9560000  0  0
 23 10 21 16  9 25.9560000  0  0
 23 10 21 16  9 26.9560000  0  0
 23 10 21 16  9 27.9560000  0  0
 23 10 21 16  9 28.9560000  0  0
 23 10 21 16  9 29.9560000  0  0
 23 10 21 16  9 30.9560000  0  0
 23 10 21 16  9 31.9560000  0  0
 23 10 21 16  9 32.9560000  0  0
 23 10 21 16  9 33.9560000  0  0
 23 10 21 16  9 34.9560000  0  0
 23 10 21 16  9 35.9560000  0  0
 23 10 21 16  9 36.9560000  0  0
 23 10 21 16  9 37.9560000  0  0
 23 10 21 16  9 38.9560000  0  0
 23 10 21 16  9 39.9560000  0  0
 23 10 21 16  9 40.9560000  0  0
 23 10 21 16  9 41.9560000  0  0
 23 10 21 16  9 42.9560000  0  0
 23 10 21 16  9 43.9560000  0  0
 23 10 21 16  9 44.9560000  0  0
 23 10 21 16  9 45.9560000  0  0
 23 10 21 16  9 46.9560000  0  0
 23 10 21 16  9 47.9560000  0  0
 23 10 21 16  9 48.9560000  0  0
 23 10 21 16  9 49.9560000  0  0
 23 10 21 16  9 50.9560000  0  0
 23 10 21 16  9 51.9560000  0  0
 23 10 21 16  9 52.9560000  0  0
 23 10 21 16  9 53.9560000  0  0
 23 10 21 16  9 54.9560000  0  0
 23 10 21 16  9 55.9560000  0  0
 23 10 21 16  9 56.9560000  0  0
 23 10 21 16  9 57.9560000  0  0
 23 10 21 16  9 58.9560000  0  0
 23 10 21 16  9 59.9560000  0  0
 23 10 21 16 10  0.9560000  0  0
 23 10 21 16 10  1.9560000  0  0
 23 10 21 16 10  2.9560000  0  0
 23 10 21 16 10  3.9560000  0  0
 23 10 21 16 10  4.9560000  0  0
 23 10 21 16 10  5.9560000  0  0
 23 10 21 16 10  6.9560000  0  0
 23 10 21 16 10  7.9560000  0  0
 23 10 21 16 10  8.9560000  0  0
 23 10 21 16 10  9.9560000  0  0
 23 10 21 16 10 10.9560000  0  0
 23 10 21 16 10 11.9560000  0  0
 23 10 21 16 10 12.9560000  0  0
 23 10 21 16 10 13.9560000  0  0
 23 10 21 16 10 14.9560000  0  0
 23 10 21 16 10 15.9560000  0  0
 23 10 21 16 10 16.9560000  0  0
 23 10 21 16 10 17.9560000  0  0
 23 10 21 16 10 18.9560000  0  0
 23 10 21 16 10 19.9560000  0  0
 23 10 21 16 10 20.9560000  0  0
 23 10 21 16 10 21.9560000  0  0
 23 10 21 16 10 22.9560000  0  0
 23 10 21 16 10 23.9560000  0  0
 23 10 21 16 10 24.9560000  0  0
 23 10 21 16 10 25.9560000  0  0
 23 10 21 16 10 26.9560000  0  0
 23 10 21 16 10 27.9560000  0  0
 23 10 21 16 10 28.9560000  0  0
 23 10 21 16 10 29.9560000  0  0
 23 10 21 16 10 30.9560000  0  0
 23 10 21 16 10 31.9560000  0  0
 23 10 21 16 10 32.9560000  0  0
 23 10 21 16 10 33.9560000  0  0
 23 10 21 16 10 34.9560000  0  0
 23 10 21 16 10 35.9560000  0  0
 23 10 21 16 10 36.9560000  0  0
 23 10 21 16 10 37.9560000  0  0
 23 10 21 16 10 38.9560000  0  0
 23 10 21 16 10 39.9560000  0  0
 23 10 21 16 10 40.9560000  0  0
 23 10 21 16 10 41.9560000  0  0
 23 10 21 16 10 42.9560000  0  0
 23 10 21 16 10 43.9560000  0  0
 23 10 21 16 10 44.9560000  0  0
 23 10 21 16 10 45.9560000  0  0
 23 10 21 16 10 46.9560000  0  0
 23 10 21 16 10 47.9560000  0  0
 23 10 21 16 10 48.9560000  0  0
 23 10 21 16 10 49.9560000  0  0
 23 10 21 16 10 50.9560000  0  0
 23 10 21 16 10 51.9560000  0  0
 23 10 21 16 10 52.9560000  0  0
 23 10 21 16 10 53.9560000  0  0
 23 10 21 16 10 54.9560000  0  0
 23 10 21 16 10 55.9560000  0  0
 23 10 21 16 10 56.9560000  0  0
 23 10 21 16 10 57.9560000  0  0
 23 10 21 16 10 58.9560000  0  0
 23 10 21 16 10 59.9560000  0  0
 23 10 21 16 11  0.9560000  0  0
 23 10 21 16 11  1.9560000  0  0
 23 10 21 16 11  2.9560000  0  0
 23 10 21 16 11  3.9560000  0  0
 23 10 21 16 11  4.9560000  0  0
 23 10 21 16 11  5.9560000  0  0
 23 10 21 16 11  6.9560000  0  0
 23 10 21 16 11  7.9560000  0  0
 23 10 21 16 11  8.9560000  0  0
 23 10 21 16 11  9.9560000  0  0
 23 10 21 16 11 10.9560000  0  0
 23 10 21 16 11 11.9560000  0  0
 23 10 21 16 11 12.9560000  0  0
 23 10 21 16 11 13.9560000  0  0
 23 10 21 16 11 14.9560000  0  0
 23 10 21 16 11 15.9560000  0  0
 23 10 21 16 11 16.9560000  0  0
 23 10 21 16 11 17.9560000  0  0
 23 10 21 16 11 18.9560000  0  0
 23 10 21 16 11 19.9560000  0  0
 23 10 21 16 11 20.9560000  0  0
 23 10 21 16 11 21.9560000  0  0
 23 10 21 16 11 22.9560000  0  0
 23 10 21 16 11 23.9560000  0  0
 23 10 21 16 11 24.9560000  0  0
 23 10 21 16 11 25.9560000  0  0
 23 10 21 16 11 26.9560000  0  0
 23 10 21 16 11 27.9560000  0  0
 23 10 21 16 11 28.9560000  0  0
 23 10 21 16 11 29.9560000  0  0
 23 10 21 16 11 30.9560000  0  0
 23 10 21 16 11 31.9560000  0  0
 23 10 21 16 11 32.9560000  0  0
 23 10 21 16 11 33.9560000  0  0
 23 10 21 16 11 34.9560000  0  0
 23 10 21 16 11 35.9560000  0  0
 23 10 21 16 11 36.9560000  0  0
 23 10 21 16 11 37.9560000  0  0
 23 10 21 16 11 38.9560000  0  0
 23 10 21 16 11 39.9560000  0  0
 23 10 21 16 11 40.9560000  0  0
 23 10 21 16 11 41.9560000  0  0
 23 10 21 16 11 42.9560000  0  0
 23 10 21 16 11 43.9560000  0  0
 23 10 21 16 11 44.9560000  0  0
 23 10 21 16 11 45.9560000  0  0
 23 10 21 16 11 46.9560000  0  0
 23 10 21 16 11 47.9560000  0  0
 23 10 21 16 11 48.9560000  0  0
 23 10 21 16 11 49.9560000  0  0
 23 10 21 16 11 50.9560000  0  0
 23 10 21 16 11 51.9560000  0  0
 23 10 21 16 11 52.9560000  0  0
 23 10 21 16 11 53.9560000  0  0
 23 10 21 16 11 54.9560000  0  0
 23 10 21 16 11 55.9560000  0  0
 23 10 21 16 11 56.9560000  0  0
 23 10 21 16 11 57.9560000  0  0
 23 10 21 16 11 58.9560000  0  0
 23 10 21 16 11 59.9560000  0  0
 23 10 21 16 12  0.9560000  0  0
 23 10 21 16 12  1.9560000  0  0
 23 10 21 16 12  2.9560000  0  0
 23 10 21 16 12  3.9560000  0  0
 23 10 21 16 12  4.9560000  0  0
 23 10 21 16 12  5.9560000  0  0
 23 10 21 16 12  6.9560000  0  0
 23 10 21 16 12  7.9560000  0  0
 23 10 21 16 12  8.9560000  0  0
 23 10 21 16 12  9.9560000  0  0
 23 10 21 16 12 10.9560000  0  0
 23 10 21 16 12 11.9560000  0  0
 23 10 21 16 12 12.9560000  0  0
 23 10 21 16 12 13.9560000  0  0
 23 10 21 16 12 14.9560000  0  0
 23 10 21 16 12 15.9560000  0  0
 23 10 21 16 12 16.9560000  0  0
 23 10 21 16 12 17.9560000  0  0
 23 10 21 16 12 18.9560000  0  0
 23 10 21 16 12 19.9560000  0  0
 23 10 21 16 12 20.9560000  0  0
 23 10 21 16 12 21.9560000  0  0
 23 10 21 16 12 22.9560000  0  0
 23 10 21 16 12 23.9560000  0  0
 23 10 21 16 12 24.9560000  0  0
 23 10 21 16 12 25.9560000  0  0
 23 10 21 16 12 26.9560000  0  0
 23 10 21 16 12 27.9560000  0  0
 23 10 21 16 12 28.9560000  0  0
 23 10 21 16 12 29.9560000  0  0
 23 10 21 16 12 30.9560000  0  0
 23 10 21 16 12 31.9560000  0  0
 23 10 21 16 12 32.9560000  0  0
 23 10 21 16 12 33.9560000  0  0
 23 10 21 16 12 34.9560000  0  0
 23 10 21 16 12 35.9560000  0  0
 23 10 21 16 12 36.9560000  0  0
 23 10 21 16 12 37.9560000  0  0
 23 10 21 16 12 38.9560000  0  0
 23 10 21 16 12 39.9560000  0  0
 23 10 21 16 12 40.9560000  0  0
 23 10 21 16 12 41.9560000  0  0
 23 10 21 16 12 42.9560000  0  0
 23 10 21 16 12 43.9560000  0  0
 23 10 21 16 12 44.9560000  0  0
 23 10 21 16 12 45.9560000  0  0
 23 10 21 16 12 46.9560000  0  0
 23 10 21 16 12 47.9560000  0  0
 23 10 21 16 12 48.9560000  0  0
 23 10 21 16 12 49.9560000  0  0
 23 10 21 16 12 50.9560000  0  0
 23 10 21 16 12 51.9560000  0  0
 23 10 21 16 12 52.9560000  0  0
 23 10 21 16 12 53.9560000  0  0
 23 10 21 16 12 54.9560000  0  0
 23 10 21 16 12 55.9560000  0  0
 23 10 21 16 12 56.9560000  0  0
 23 10 21 16 12 57.9560000  0  0
 23 10 21 16 12 58.9560000  0  0
 23 10 21 16 12 59.9560000  0  0
 23 10 21 16 13  0.9560000  0  0
 23 10 21 16 13  1.9560000  0  0
 23 10 21 16 13  2.9560000  0  0
 23 10 21 16 13  3.9560000  0  0
 23 10 21 16 13  4.9560000  0  0
 23 10 21 16 13  5.9560000  0  0
 23 10 21 16 13  6.9560000  0  0
 23 10 21 16 13  7.9560000  0  0
 23 10 21 16 13  8.9560000  0  0
 23 10 21 16 13  9.9560000  0  0
 23 10 21 16 13 10.9560000  0  0
 23 10 21 16 13 11.9560000  0  0
 23 10 21 16 13 12.9560000  0  0
 23 10 21 16 13 13.9560000  0  0
 23 10 21 16 13 14.9560000  0  0
 23 10 21 16 13 15.9560000  0  0
 23 10 21 16 13 16.9560000  0  0
 23 10 21 16 13 17.9560000  0  0
 23 10 21 16 13 18.9560000  0  0
 23 10 21 16 13 19.9560000  0  0
 23 10 21 16 13 20.9560000  0  0
 23 10 21 16 13 21.9560000  0  0
 23 10 21 16 13 22.9560000  0  0
 23 10 21 16 13 23.9560000  0  0
 23 10 21 16 13 24.9560000  0  0
 23 10 21 16 13 25.9560000  0  0
 23 10 21 16 13 26.9560000  0  0
 23 10 21 16 13 27.9560000  0  0
 23 10 21 16 13 28.9560000  0  0
 23 10 21 16 13 29.9560000  0  0
 23 10 21 16 13 30.9560000  0  0
 23 10 21 16 13 31.9560000  0  0
 23 10 21 16 13 32.9560000  0  0
 23 10 21 16 13 33.9560000  0  0
 23 10 21 16 13 34.9560000  0  0
 23 10 21 16 13 35.9560000  0  0
 23 10 21 16 13 36.9560000  0  0
 23 10 21 16 13 37.9560000  0  0
 23 10 21 16 13 38.9560000  0  0
 23 10 21 16 13 39.9560000  0  0
 23 10 21 16 13 40.9560000  0  0
 23 10 21 16 13 41.9560000  0  0
 23 10 21 16 13 42.9560000  0  0
 23 10 21 16 13 43.9560000  0  0
 23 10 21 16 13 44.9560000  0  0
 23 10 21 16 13 45.9560000  0  0
 23 10 21 16 13 46.9560000  0  0
 23 10 21 16 13 47.9560000  0  0
 23 10 21 16 13 48.9560000  0  0
 23 10 21 16 13 49.9560000  0  0
 23 10 21 16 13 50.9560000  0  0
 23 10 21 16 13 51.9560000  0  0
 23 10 21 16 13 52.9560000  0  0
 23 10 21 16 13 53.9560000  0  0
 23 10 21 16 13 54.9560000  0  0
 23 10 21 16 13 55.9560000  0  0
 23 10 21 16 13 56.9560000  0  0
 23 10 21 16 13 57.9560000  0  0
 23 10 21 16 13 58.9560000  0  0
 23 10 21 16 13 59.9560000  0  0
 23 10 21 16 14  0.9560000  0  0
 23 10 21 16 14  1.9560000  0  0
 23 10 21 16 14  2.9560000  0  0
 23 10 21 16 14  3.9560000  0  0
 23 10 21 16 14  4.9560000  0  0
 23 10 21 16 14  5.9560000  0  0
 23 10 21 16 14  6.9560000  0  0
 23 10 21 16 14  7.9560000  0  0
 23 10 21 16 14  8.9560000  0  0
 23 10 21 16 14  9.9560000  0  0
 23 10 21 16 14 10.9560000  0  0
 23 10 21 16 14 11.9560000  0  0
 23 10 21 16 14 12.9560000  0  0
 23 10 21 16 14 13.9560000  0  0
 23 10 21 16 14 14.9560000  0  0
 23 10 21 16 14 15.9560000  0  0
 23 10 21 16 14 16.9560000  0  0
 23 10 21 16 14 17.9560000  0  0
 23 10 21 16 14 18.9560000  0  0
 23 10 21 16 14 19.9560000  0  0
 23 10 21 16 14 20.9560000  0  0
 23 10 21 16 14 21.9560000  0  0
 23 10 21 16 14 22.9560000  0  0
 23 10 21 16 14 23.9560000  0  0
 23 10 21 16 14 24.9560000  0  0
 23 10 21 16 14 25.9560000  0  0
 23 10 21 16 14 26.9560000  0  0
 23 10 21 16 14 27.9560000  0  0
 23 10 21 16 14 28.9560000  0  0
 23 10 21 16 14 29.9560000  0  0
 23 10 21 16 14 30.9560000  0  0
 23 10 21 16 14 31.9560000  0  0
 23 10 21 16 14 32.9560000  0  0
 23 10 21 16 14 33.9560000  0  0
 23 10 21 16 14 34.9560000  0  0
 23 10 21 16 14 35.9560000  0  0
 23 10 21 16 14 36.9560000  0  0
 23 10 21 16 14 37.9560000  0  0
 23 10 21 16 14 38.9560000  0  0
 23 10 21 16 14 39.9560000  0  0
 23 10 21 16 14 40.9560000  0  0
 23 10 21 16 14 41.9560000  0  0
 23 10 21 16 14 42.9560000  0  0
 23 10 21 16 14 43.9560000  0  0
 23 10 21 16 14 44.9560000  0  0
 23 10 21 16 14 45.9560000  0  0
 23 10 21 16 14 46.9560000  0  0
 23 10 21 16 14 47.9560000  0  0
 23 10 21 16 14 48.9560000  0  0
 23 10 21 16 14 49.9560000  0  0
 23 10 21 16 14 50.9560000  0  0
 23 10 21 16 14 51.9560000  0  0
 23 10 21 16 14 52.9560000  0  0
 23 10 21 16 14 53.9560000  0  0
 23 10 21 16 14 54.9560000  0  0
 23 10 21 16 14 55.9560000  0  0
 23 10 21 16 14 56.9560000  0  0
 23 10 21 16 14 57.9560000  0  0
 23 10 21 16 14 58.9560000  0  0
 23 10 21 16 14 59.9560000  0  0
 23 10 21 16 15  0.9560000  0  0
 23 10 21 16 15  1.9560000  0  0
 23 10 21 16 15  2.9560000  0  0
 23 10 21 16 15  3.9560000  0  0
 23 10 21 16 15  4.9560000  0  0
 23 10 21 16 15  5.9560000  0  0
 23 10 21 16 15  6.9560000  0  0
 23 10 21 16 15  7.9560000  0  0
 23 10 21 16 15  8.9560000  0  0
 23 10 21 16 15  9.9560000  0  0
 23 10 21 16 15 10.9560000  0  0
 23 10 21 16 15 11.9560000  0  0
 23 10 21 16 15 12.9560000  0  0
 23 10 21 16 15 13.9560000  0  0
 23 10 21 16 15 14.9560000  0  0
 23 10 21 16 15 15.9560000  0  0
 23 10 21 16 15 16.9560000  0  0
 23 10 21 16 15 17.9560000  0  0
 23 10 21 16 15 18.9560000  0  0
 23 10 21 16 15 19.9560000  0  0
 23 10 21 16 15 20.9560000  0  0
 23 10 21 16 15 21.9560000  0  0
 23 10 21 16 15 22.9560000  0  0
 23 10 21 16 15 23.9560000  0  0
 23 10 21 16 15 24.9560000  0  0
 23 10 21 16 15 25.9560000  0  0
 23 10 21 16 15 26.9560000  0  0
 23 10 21 16 15 27.9560000  0  0
 23 10 21 16 15 28.9560000  0  0
 23 10 21 16 15 29.9560000  0  0
 23 10 21 16 15 30.9560000  0  0
 23 10 21 16 15 31.9560000  0  0
 23 10 21 16 15 32.9560000  0  0
 23 10 21 16 15 33.9560000  0  0
 23 10 21 16 15 34.9560000  0  0
 23 10 21 16 15 35.9560000  0  0
 23 10 21 16 15 36.9560000  0  0
 23 10 21 16 15 37.9560000  0  0
 23 10 21 16 15 38.9560000  0  0
 23 10 21 16 15 39.9560000  0  0
 23 10 21 16 15 40.9560000  0  0
 23 10 21 16 15 41.9560000  0  0
 23 10 21 16 15 42.9560000  0  0
 23 10 21 16 15 43.9560000  0  0
 23 10 21 16 15 44.9560000  0  0
 23 10 21 16 15 45.9560000  0  0
 23 10 21 16 15 46.9560000  0  0
 23 10 21 16 15 47.9560000  0  0
 23 10 21 16 15 48.9560000  0  0
 23 10 21 16 15 49.9560000  0  0
 23 10 21 16 15 50.9560000  0  0
 23 10 21 16 15 51.9560000  0  0
 23 10 21 16 15 52.9560000  0  0
 23 10 21 16 15 53.9560000  0  0
 23 10 21 16 15 54.9560000  0  0
 23 10 21 16 15 55.9560000  0  0
 23 10 21 16 15 56.9560000  0  0
 23 10 21 16 15 57.9560000  0  0
 23 10 21 16 15 58.9560000  0  0
 23 10 21 16 15 59.9560000  0  0
 23 10 21 16 16  0.9560000  0  0
 23 10 21 16 16  1.9560000  0  0
 23 10 21 16 16  2.9560000  0  0
 23 10 21 16 16  3.9560000  0  0
 23 10 21 16 16  4.9560000  0  0
 23 10 21 16 16  5.9560000  0  0
 23 10 21 16 16  6.9560000  0  0
 23 10 21 16 16  7.9560000  0  0
 23 10 21 16 16  8.9560000  0  0
 23 10 21 16 16  9.9560000  0  0
 23 10 21 16 16 10.9560000  0  0
 23 10 21 16 16 11.9560000  0  0
 23 10 21 16 16 12.9560000  0  0
 23 10 21 16 16 13.9560000  0  0
 23 10 21 16 16 14.9560000  0  0
 23 10 21 16 16 15.9560000  0  0
 23 10 21 16 16 16.9560000  0  0
 23 10 21 16 16 17.9560000  0  0
 23 10 21 16 16 18.9560000  0  0
 23 10 21 16 16 19.9560000  0  0
 23 10 21 16 16 20.9560000  0  0
 23 10 21 16 16 21.9560000  0  0
 23 10 21 16 16 22.9560000  0  0
 23 10 21 16 16 23.9560000  0  0
 23 10 21 16 16 24.9560000  0  0
 23 10 21 16 16 25.9560000  0  0
 23 10 21 16 16 26.9560000  0  0
 23 10 21 16 16 27.9560000  0  0
 23 10 21 16 16 28.9560000  0  0
 23 10 21 16 16 29.9560000  0  0
 23 10 21 16 16 30.9560000  0  0
 23 10 21 16 16 31.9560000  0  0
 23 10 21 16 16 32.9560000  0  0
 23 10 21 16 16 33.9560000  0  0
 23 10 21 16 16 34.9560000  0  0
 23 10 21 16 16 35.9560000  0  0
 23 10 21 16 16 36.9560000  0  0
 23 10 21 16 16 37.9560000  0  0
 23 10 21 16 16 38.9560000  0  0
 23 10 21 16 16 39.9560000  0  0
 23 10 21 16 16 40.9560000  0  0
 23 10 21 16 16 41.9560000  0  0
 23 10 21 16 16 42.9560000  0  0
 23 10 21 16 16 43.9560000  0  0
 23 10 21 16 16 44.9560000  0  0
 23 10 21 16 16 45.9560000  0  0
 23 10 21 16 16 46.9560000  0  0
 23 10 21 16 16 47.9560000  0  0
 23 10 21 16 16 48.9560000  0  0
 23 10 21 16 16 49.9560000  0  0
 23 10 21 16 16 50.9560000  0  0
 23 10 21 16 16 51.9560000  0  0
 23 10 21 16 16 52.9560000  0  0
 23 10 21 16 16 53.9560000  0  0
 23 10 21 16 16 54.9560000  0  0
 23 10 21 16 16 55.9560000  0  0
 23 10 21 16 16 56.9560000  0  0
 23 10 21 16 16 57.9560000  0  0
 23 10 21 16 16 58.9560000  0  0
 23 10 21 16 16 59.9560000  0  0
 23 10 21 16 17  0.9560000  0  0
 23 10 21 16 17  1.9560000  0  0
 23 10 21 16 17  2.9560000  0  0
 23 10 21 16 17  3.9560000  0  0
 23 10 21 16 17  4.9560000  0  0
 23 10 21 16 17  5.9560000  0  0
 23 10 21 16 17  6.9560000  0  0
 23 10 21 16 17  7.9560000  0  0
 23 10 21 16 17  8.9560000  0  0
 23 10 21 16 17  9.9560000  0  0
 23 10 21 16 17 10.9560000  0  0
 23 10 21 16 17 11.9560000  0  0
 23 10 21 16 17 12.9560000  0  0
 23 10 21 16 17 13.9560000  0  0
 23 10 21 16 17 14.9560000  0  0
 23 10 21 16 17 15.9560000  0  0
 23 10 21 16 17 16.9560000  0  0
 23 10 21 16 17 17.9560000  0  0
 23 10 21 16 17 18.9560000  0  0
 23 10 21 16 17 19.9560000  0  0
 23 10 21 16 17 20.9560000  0  0
 23 10 21 16 17 21.9560000  0  0
 23 10 21 16 17 22.9560000  0  0
 23 10 21 16 17 23.9560000  0  0
 23 10 21 16 17 24.9560000  0  0
 23 10 21 16 17 25.9560000  0  0
 23 10 21 16 17 26.9560000  0  0
 23 10 21 16 17 27.9560000  0  0
 23 10 21 16 17 28.9560000  0  0
 23 10