     2.10           OBSERVATION DATA    G (GPS)             RINEX VERSION / TYPE
GOGEO               M.KREJ              20231210 111011 UTC PGM / RUN BY / DATE 
COMMENT1                                                    COMMENT             
MARKER1                                                     MARKER NAME         
                                                            MARKER NUMBER       
MKREJ               INNOVA                                  OBSERVER / AGENCY   
RCV1                                                        REC # / TYPE / VERS 
ANT1                                                        ANT # / TYPE        
  3642325.0000  1411093.3420  5025370.3360                  APPROX POSITION XYZ 
        0.0000        0.0000        0.0000                  ANTENNA: DELTA H/E/N
     1     1                                                WAVELENGTH FACT L1/2
     3    C1    L1    S1                                    # / TYPES OF OBSERV 
     1.000                                                  INTERVAL            
  2023    11    28    18     3   21.6400000     GPS         TIME OF FIRST OBS   
  2023    11    28    18     3   21.6400000     GPS         TIME OF LAST OBS    
                                                            END OF HEADER       
 23 11 28 18  3 21.6400000  0  0
 23 11 28 18  3 22.6400000  0  0
 23 11 28 18  3 23.6400000  0  0
 23 11 28 18  3 24.6400000  0  0
 23 11 28 18  3 25.6400000  0  0
 23 11 28 18  3 26.6400000  0  0
 23 11 28 18  3 27.6400000  0  0
 23 11 28 18  3 28.6400000  0  0
 23 11 28 18  3 29.6400000  0  0
 23 11 28 18  3 30.6400000  0  0
 23 11 28 18  3 31.6400000  0  0
 23 11 28 18  3 32.6400000  0  0
 23 11 28 18  3 33.6400000  0  0
 23 11 28 18  3 34.6400000  0  0
 23 11 28 18  3 35.6400000  0  0
 23 11 28 18  3 36.6400000  0  0
 23 11 28 18  3 37.6400000  0  0
 23 11 28 18  3 38.6400000  0  0
 23 11 28 18  3 39.6400000  0  0
 23 11 28 18  3 40.6400000  0  0
 23 11 28 18  3 41.6400000  0  0
 23 11 28 18  3 42.6400000  0  0
 23 11 28 18  3 43.6400000  0  0
 23 11 28 18  3 44.6400000  0  0
 23 11 28 18  3 45.6400000  0  0
 23 11 28 18  3 46.6400000  0  0
 23 11 28 18  3 47.6400000  0  0
 23 11 28 18  3 48.6400000  0  0
 23 11 28 18  3 49.6400000  0  0
 23 11 28 18  3 50.6400000  0  0
 23 11 28 18  3 51.6400000  0  0
 23 11 28 18  3 52.6400000  0  0
 23 11 28 18  3 53.6400000  0  0
 23 11 28 18  3 54.6400000  0  0
 23 11 28 18  3 55.6400000  0  0
 23 11 28 18  3 56.6400000  0  0
 23 11 28 18  3 57.6400000  0  0
 23 11 28 18  3 58.6400000  0  0
 23 11 28 18  3 59.6400000  0  0
 23 11 28 18  4  0.6400000  0  0
 23 11 28 18  4  1.6400000  0  0
 23 11 28 18  4  2.6400000  0  0
 23 11 28 18  4  3.6400000  0  0
 23 11 28 18  4  4.6400000  0  0
 23 11 28 18  4  5.6400000  0  0
 23 11 28 18  4  6.6400000  0  0
 23 11 28 18  4  7.6400000  0  0
 23 11 28 18  4  8.6400000  0  0
 23 11 28 18  4  9.6400000  0  0
 23 11 28 18  4 10.6400000  0  0
 23 11 28 18  4 11.6400000  0  0
 23 11 28 18  4 12.6400000  0  0
 23 11 28 18  4 13.6400000  0  0
 23 11 28 18  4 14.6400000  0  0
 23 11 28 18  4 15.6400000  0  0
 23 11 28 18  4 16.6400000  0  0
 23 11 28 18  4 17.6400000  0  0
 23 11 28 18  4 18.6400000  0  0
 23 11 28 18  4 19.6400000  0  0
 23 11 28 18  4 20.6400000  0  0
 23 11 28 18  4 21.6400000  0  0
 23 11 28 18  4 22.6400000  0  0
 23 11 28 18  4 23.6400000  0  0
 23 11 28 18  4 24.6400000  0  0
 23 11 28 18  4 25.6400000  0  0
 23 11 28 18  4 26.6400000  0  0
 23 11 28 18  4 27.6400000  0  0
 23 11 28 18  4 28.6400000  0  0
 23 11 28 18  4 29.6400000  0  0
 23 11 28 18  4 30.6400000  0  0
 23 11 28 18  4 31.6400000  0  0
 23 11 28 18  4 32.6400000  0  0
 23 11 28 18  4 33.6400000  0  0
 23 11 28 18  4 34.6400000  0  0
 23 11 28 18  4 35.6400000  0  0
 23 11 28 18  4 36.6400000  0  0
 23 11 28 18  4 37.6400000  0  0
 23 11 28 18  4 38.6400000  0  0
 23 11 28 18  4 39.6400000  0  0
 23 11 28 18  4 40.6400000  0  0
 23 11 28 18  4 41.6400000  0  0
 23 11 28 18  4 42.6400000  0  0
 23 11 28 18  4 43.6400000  0  0
 23 11 28 18  4 44.6400000  0  0
 23 11 28 18  4 45.6400000  0  0
 23 11 28 18  4 46.6400000  0  0
 23 11 28 18  4 47.6400000  0  0
 23 11 28 18  4 48.6400000  0  0
 23 11 28 18  4 49.6400000  0  0
 23 11 28 18  4 50.6400000  0  0
 23 11 28 18  4 51.6400000  0  0
 23 11 28 18  4 52.6400000  0  0
 23 11 28 18  4 53.6400000  0  0
 23 11 28 18  4 54.6400000  0  0
 23 11 28 18  4 55.6400000  0  0
 23 11 28 18  4 56.6400000  0  0
 23 11 28 18  4 57.6400000  0  0
 23 11 28 18  4 58.6400000  0  0
 23 11 28 18  4 59.6400000  0  0
 23 11 28 18  5  0.6400000  0  0
 23 11 28 18  5  1.6400000  0  0
 23 11 28 18  5  2.6400000  0  0
 23 11 28 18  5  3.6400000  0  0
 23 11 28 18  5  4.6400000  0  0
 23 11 28 18  5  5.6400000  0  0
 23 11 28 18  5  6.6400000  0  0
 23 11 28 18  5  7.6400000  0  0
 23 11 28 18  5  8.6400000  0  0
 23 11 28 18  5  9.6400000  0  0
 23 11 28 18  5 10.6400000  0  0
 23 11 28 18  5 11.6400000  0  0
 23 11 28 18  5 12.6400000  0  0
 23 11 28 18  5 13.6400000  0  0
 23 11 28 18  5 14.6400000  0  0
 23 11 28 18  5 15.6400000  0  0
 23 11 28 18  5 16.6400000  0  0
 23 11 28 18  5 17.6400000  0  0
 23 11 28 18  5 18.6400000  0  0
 23 11 28 18  5 19.6400000  0  0
 23 11 28 18  5 20.6400000  0  0
 23 11 28 18  5 21.6400000  0  0
 23 11 28 18  5 22.6400000  0  0
 23 11 28 18  5 23.6400000  0  0
 23 11 28 18  5 24.6400000  0  0
 23 11 28 18  5 25.6400000  0  0
 23 11 28 18  5 26.6400000  0  0
 23 11 28 18  5 27.6400000  0  0
 23 11 28 18  5 28.6400000  0  0
 23 11 28 18  5 29.6400000  0  0
 23 11 28 18  5 30.6400000  0  0
 23 11 28 18  5 31.6400000  0  0
 23 11 28 18  5 32.6400000  0  0
 23 11 28 18  5 33.6400000  0  0
 23 11 28 18  5 34.6400000  0  0
 23 11 28 18  5 35.6400000  0  0
 23 11 28 18  5 36.6400000  0  0
 23 11 28 18  5 37.6400000  0  0
 23 11 28 18  5 38.6400000  0  0
 23 11 28 18  5 39.6400000  0  0
 23 11 28 18  5 40.6400000  0  0
 23 11 28 18  5 41.6400000  0  0
 23 11 28 18  5 42.6400000  0  0
 23 11 28 18  5 43.6400000  0  0
 23 11 28 18  5 44.6400000  0  0
 23 11 28 18  5 45.6400000  0  0
 23 11 28 18  5 46.6400000  0  0
 23 11 28 18  5 47.6400000  0  0
 23 11 28 18  5 48.6400000  0  0
 23 11 28 18  5 49.6400000  0  0
 23 11 28 18  5 50.6400000  0  0
 23 11 28 18  5 51.6400000  0  0
 23 11 28 18  5 52.6400000  0  0
 23 11 28 18  5 53.6400000  0  0
 23 11 28 18  5 54.6400000  0  0
 23 11 28 18  5 55.6400000  0  0
 23 11 28 18  5 56.6400000  0  0
 23 11 28 18  5 57.6400000  0  0
 23 11 28 18  5 58.6400000  0  0
 23 11 28 18  5 59.6400000  0  0
 23 11 28 18  6  0.6400000  0  0
 23 11 28 18  6  1.6400000  0  0
 23 11 28 18  6  2.6400000  0  0
 23 11 28 18  6  3.6400000  0  0
 23 11 28 18  6  4.6400000  0  0
 23 11 28 18  6  5.6400000  0  0
 23 11 28 18  6  6.6400000  0  0
 23 11 28 18  6  7.6400000  0  0
 23 11 28 18  6  8.6400000  0  0
 23 11 28 18  6  9.6400000  0  0
 23 11 28 18  6 10.6400000  0  0
 23 11 28 18  6 11.6400000  0  0
 23 11 28 18  6 12.6400000  0  0
 23 11 28 18  6 13.6400000  0  0
 23 11 28 18  6 14.6400000  0  0
 23 11 28 18  6 15.6400000  0  0
 23 11 28 18  6 16.6400000  0  0
 23 11 28 18  6 17.6400000  0  0
 23 11 28 18  6 18.6400000  0  0
 23 11 28 18  6 19.6400000  0  0
 23 11 28 18  6 20.6400000  0  0
 23 11 28 18  6 21.6400000  0  0
 23 11 28 18  6 22.6400000  0  0
 23 11 28 18  6 23.6400000  0  0
 23 11 28 18  6 24.6400000  0  0
 23 11 28 18  6 25.6400000  0  0
 23 11 28 18  6 26.6400000  0  0
 23 11 28 18  6 27.6400000  0  0
 23 11 28 18  6 28.6400000  0  0
 23 11 28 18  6 29.6400000  0  0
 23 11 28 18  6 30.6400000  0  0
 23 11 28 18  6 31.6400000  0  0
 23 11 28 18  6 32.6400000  0  0
 23 11 28 18  6 33.6400000  0  0
 23 11 28 18  6 34.6400000  0  0
 23 11 28 18  6 35.6400000  0  0
 23 11 28 18  6 36.6400000  0  0
 23 11 28 18  6 37.6400000  0  0
 23 11 28 18  6 38.6400000  0  0
 23 11 28 18  6 39.6400000  0  0
 23 11 28 18  6 40.6400000  0  0
 23 11 28 18  6 41.6400000  0  0
 23 11 28 18  6 42.6400000  0  0
 23 11 28 18  6 43.6400000  0  0
 23 11 28 18  6 44.6400000  0  0
 23 11 28 18  6 45.6400000  0  0
 23 11 28 18  6 46.6400000  0  0
 23 11 28 18  6 47.6400000  0  0
 23 11 28 18  6 48.6400000  0  0
 23 11 28 18  6 49.6400000  0  0
 23 11 28 18  6 50.6400000  0  0
 23 11 28 18  6 51.6400000  0  0
 23 11 28 18  6 52.6400000  0  0
 23 11 28 18  6 53.6400000  0  0
 23 11 28 18  6 54.6400000  0  0
 23 11 28 18  6 55.6400000  0  0
 23 11 28 18  6 56.6400000  0  0
 23 11 28 18  6 57.6400000  0  0
 23 11 28 18  6 58.6400000  0  0
 23 11 28 18  6 59.6400000  0  0
 23 11 28 18  7  0.6400000  0  0
 23 11 28 18  7  1.6400000  0  0
 23 11 28 18  7  2.6400000  0  0
 23 11 28 18  7  3.6400000  0  0
 23 11 28 18  7  4.6400000  0  0
 23 11 28 18  7  5.6400000  0  0
 23 11 28 18  7  6.6400000  0  0
 23 11 28 18  7  7.6400000  0  0
 23 11 28 18  7  8.6400000  0  0
 23 11 28 18  7  9.6400000  0  0
 23 11 28 18  7 10.6400000  0  0
 23 11 28 18  7 11.6400000  0  0
 23 11 28 18  7 12.6400000  0  0
 23 11 28 18  7 13.6400000  0  0
 23 11 28 18  7 14.6400000  0  0
 23 11 28 18  7 15.6400000  0  0
 23 11 28 18  7 16.6400000  0  0
 23 11 28 18  7 17.6400000  0  0
 23 11 28 18  7 18.6400000  0  0
 23 11 28 18  7 19.6400000  0  0
 23 11 28 18  7 20.6400000  0  0
 23 11 28 18  7 21.6400000  0  0
 23 11 28 18  7 22.6400000  0  0
 23 11 28 18  7 23.6400000  0  0
 23 11 28 18  7 24.6400000  0  0
 23 11 28 18  7 25.6400000  0  0
 23 11 28 18  7 26.6400000  0  0
 23 11 28 18  7 27.6400000  0  0
 23 11 28 18  7 28.6400000  0  0
 23 11 28 18  7 29.6400000  0  0
 23 11 28 18  7 30.6400000  0  0
 23 11 28 18  7 31.6400000  0  0
 23 11 28 18  7 32.6400000  0  0
 23 11 28 18  7 33.6400000  0  0
 23 11 28 18  7 34.6400000  0  0
 23 11 28 18  7 35.6400000  0  0
 23 11 28 18  7 36.6400000  0  0
 23 11 28 18  7 37.6400000  0  0
 23 11 28 18  7 38.6400000  0  0
 23 11 28 18  7 39.6400000  0  0
 23 11 28 18  7 40.6400000  0  0
 23 11 28 18  7 41.6400000  0  0
 23 11 28 18  7 42.6400000  0  0
 23 11 28 18  7 43.6400000  0  0
 23 11 28 18  7 44.6400000  0  0
 23 11 28 18  7 45.6400000  0  0
 23 11 28 18  7 46.6400000  0  0
 23 11 28 18  7 47.6400000  0  0
 23 11 28 18  7 48.6400000  0  0
 23 11 28 18  7 49.6400000  0  0
 23 11 28 18  7 50.6400000  0  0
 23 11 28 18  7 51.6400000  0  0
 23 11 28 18  7 52.6400000  0  0
 23 11 28 18  7 53.6400000  0  0
 23 11 28 18  7 54.6400000  0  0
 23 11 28 18  7 55.6400000  0  0
 23 11 28 18  7 56.6400000  0  0
 23 11 28 18  7 57.6400000  0  0
 23 11 28 18  7 58.6400000  0  0
 23 11 28 18  7 59.6400000  0  0
 23 11 28 18  8  0.6400000  0  0
 23 11 28 18  8  1.6400000  0  0
 23 11 28 18  8  2.6400000  0  0
 23 11 28 18  8  3.6400000  0  0
 23 11 28 18  8  4.6400000  0  0
 23 11 28 18  8  5.6400000  0  0
 23 11 28 18  8  6.6400000  0  0
 23 11 28 18  8  7.6400000  0  0
 23 11 28 18  8  8.6400000  0  0
 23 11 28 18  8  9.6400000  0  0
 23 11 28 18  8 10.6400000  0  0
 23 11 28 18  8 11.6400000  0  0
 23 11 28 18  8 12.6400000  0  0
 23 11 28 18  8 13.6400000  0  0
 23 11 28 18  8 14.6400000  0  0
 23 11 28 18  8 15.6400000  0  0
 23 11 28 18  8 16.6400000  0  0
 23 11 28 18  8 17.6400000  0  0
 23 11 28 18  8 18.6400000  0  0
 23 11 28 18  8 19.6400000  0  0
 23 11 28 18  8 20.6400000  0  0
 23 11 28 18  8 21.6400000  0  0
 23 11 28 18  8 22.6400000  0  0
 23 11 28 18  8 23.6400000  0  0
 23 11 28 18  8 24.6400000  0  0
 23 11 28 18  8 25.6400000  0  0
 23 11 28 18  8 26.6400000  0  0
 23 11 28 18  8 27.6400000  0  0
 23 11 28 18  8 28.6400000  0  0
 23 11 28 18  8 29.6400000  0  0
 23 11 28 18  8 30.6400000  0  0
 23 11 28 18  8 31.6400000  0  0
 23 11 28 18  8 32.6400000  0  0
 23 11 28 18  8 33.6400000  0  0
 23 11 28 18  8 34.6400000  0  0
 23 11 28 18  8 35.6400000  0  0
 23 11 28 18  8 36.6400000  0  0
 23 11 28 18  8 37.6400000  0  0
 23 11 28 18  8 38.6400000  0  0
 23 11 28 18  8 39.6400000  0  0
 23 11 28 18  8 40.6400000  0  0
 23 11 28 18  8 41.6400000  0  0
 23 11 28 18  8 42.6400000  0  0
 23 11 28 18  8 43.6400000  0  0
 23 11 28 18  8 44.6400000  0  0
 23 11 28 18  8 45.6400000  0  0
 23 11 28 18  8 46.6400000  0  0
 23 11 28 18  8 47.6400000  0  0
 23 11 28 18  8 48.6400000  0  0
 23 11 28 18  8 49.6400000  0  0
 23 11 28 18  8 50.6400000  0  0
 23 11 28 18  8 51.6400000  0  0
 23 11 28 18  8 52.6400000  0  0
 23 11 28 18  8 53.6400000  0  0
 23 11 28 18  8 54.6400000  0  0
 23 11 28 18  8 55.6400000  0  0
 23 11 28 18  8 56.6400000  0  0
 23 11 28 18  8 57.6400000  0  0
 23 11 28 18  8 58.6400000  0  0
 23 11 28 18  8 59.6400000  0  0
 23 11 28 18  9  0.6400000  0  0
 23 11 28 18  9  1.6400000  0  0
 23 11 28 18  9  2.6400000  0  0
 23 11 28 18  9  3.6400000  0  0
 23 11 28 18  9  4.6400000  0  0
 23 11 28 18  9  5.6400000  0  0
 23 11 28 18  9  6.6400000  0  0
 23 11 28 18  9  7.6400000  0  0
 23 11 28 18  9  8.6400000  0  0
 23 11 28 18  9  9.6400000  0  0
 23 11 28 18  9 10.6400000  0  0
 23 11 28 18  9 11.6400000  0  0
 23 11 28 18  9 12.6400000  0  0
 23 11 28 18  9 13.6400000  0  0
 23 11 28 18  9 14.6400000  0  0
 23 11 28 18  9 15.6400000  0  0
 23 11 28 18  9 16.6400000  0  0
 23 11 28 18  9 17.6400000  0  0
 23 11 28 18  9 18.6400000  0  0
 23 11 28 18  9 19.6400000  0  0
 23 11 28 18  9 20.6400000  0  0
 23 11 28 18  9 21.6400000  0  0
 23 11 28 18  9 22.6400000  0  0
 23 11 28 18  9 23.6400000  0  0
 23 11 28 18  9 24.6400000  0  0
 23 11 28 18  9 25.6400000  0  0
 23 11 28 18  9 26.6400000  0  0
 23 11 28 18  9 27.6400000  0  0
 23 11 28 18  9 28.6400000  0  0
 23 11 28 18  9 29.6400000  0  0
 23 11 28 18  9 30.6400000  0  0
 23 11 28 18  9 31.6400000  0  0
 23 11 28 18  9 32.6400000  0  0
 23 11 28 18  9 33.6400000  0  0
 23 11 28 18  9 34.6400000  0  0
 23 11 28 18  9 35.6400000  0  0
 23 11 28 18  9 36.6400000  0  0
 23 11 28 18  9 37.6400000  0  0
 23 11 28 18  9 38.6400000  0  0
 23 11 28 18  9 39.6400000  0  0
 23 11 28 18  9 40.6400000  0  0
 23 11 28 18  9 41.6400000  0  0
 23 11 28 18  9 42.6400000  0  0
 23 11 28 18  9 43.6400000  0  0
 23 11 28 18  9 44.6400000  0  0
 23 11 28 18  9 45.6400000  0  0
 23 11 28 18  9 46.6400000  0  0
 23 11 28 18  9 47.6400000  0  0
 23 11 28 18  9 48.6400000  0  0
 23 11 28 18  9 49.6400000  0  0
 23 11 28 18  9 50.6400000  0  0
 23 11 28 18  9 51.6400000  0  0
 23 11 28 18  9 52.6400000  0  0
 23 11 28 18  9 53.6400000  0  0
 23 11 28 18  9 54.6400000  0  0
 23 11 28 18  9 55.6400000  0  0
 23 11 28 18  9 56.6400000  0  0
 23 11 28 18  9 57.6400000  0  0
 23 11 28 18  9 58.6400000  0  0
 23 11 28 18  9 59.6400000  0  0
 23 11 28 18 10  0.6400000  0  0
 23 11 28 18 10  1.6400000  0  0
 23 11 28 18 10  2.6400000  0  0
 23 11 28 18 10  3.6400000  0  0
 23 11 28 18 10  4.6400000  0  0
 23 11 28 18 10  5.6400000  0  0
 23 11 28 18 10  6.6400000  0  0
 23 11 28 18 10  7.6400000  0  0
 23 11 28 18 10  8.6400000  0  0
 23 11 28 18 10  9.6400000  0  0
 23 11 28 18 10 10.6400000  0  0
 23 11 28 18 10 11.6400000  0  0
 23 11 28 18 10 12.6400000  0  0
 23 11 28 18 10 13.6400000  0  0
 23 11 28 18 10 14.6400000  0  0
 23 11 28 18 10 15.6400000  0  0
 23 11 28 18 10 16.6400000  0  0
 23 11 28 18 10 17.6400000  0  0
 23 11 28 18 10 18.6400000  0  0
 23 11 28 18 10 19.6400000  0  0
 23 11 28 18 10 20.6400000  0  0
 23 11 28 18 10 21.6400000  0  0
 23 11 28 18 10 22.6400000  0  0
 23 11 28 18 10 23.6400000  0  0
 23 11 28 18 10 24.6400000  0  0
 23 11 28 18 10 25.6400000  0  0
 23 11 28 18 10 26.6400000  0  0
 23 11 28 18 10 27.6400000  0  0
 23 11 28 18 10 28.6400000  0  0
 23 11 28 18 10 29.6400000  0  0
 23 11 28 18 10 30.6400000  0  0
 23 11 28 18 10 31.6400000  0  0
 23 11 28 18 10 32.6400000  0  0
 23 11 28 18 10 33.6400000  0  0
 23 11 28 18 10 34.6400000  0  0
 23 11 28 18 10 35.6400000  0  0
 23 11 28 18 10 36.6400000  0  0
 23 11 28 18 10 37.6400000  0  0
 23 11 28 18 10 38.6400000  0  0
 23 11 28 18 10 39.6400000  0  0
 23 11 28 18 10 40.6400000  0  0
 23 11 28 18 10 41.6400000  0  0
 23 11 28 18 10 42.6400000  0  0
 23 11 28 18 10 43.6400000  0  0
 23 11 28 18 10 44.6400000  0  0
 23 11 28 18 10 45.6400000  0  0
 23 11 28 18 10 46.6400000  0  0
 23 11 28 18 10 47.6400000  0  0
 23 11 28 18 10 48.6400000  0  0
 23 11 28 18 10 49.6400000  0  0
 23 11 28 18 10 50.6400000  0  0
 23 11 28 18 10 51.6400000  0  0
 23 11 28 18 10 52.6400000  0  0
 23 11 28 18 10 53.6400000  0  0
 23 11 28 18 10 54.6400000  0  0
 23 11 28 18 10 55.6400000  0  0
 23 11 28 18 10 56.6400000  0  0
 23 11 28 18 10 57.6400000  0  0
 23 11 28 18 10 58.6400000  0  0
 23 11 28 18 10 59.6400000  0  0
 23 11 28 18 11  0.6400000  0  0
 23 11 28 18 11  1.6400000  0  0
 23 11 28 18 11  2.6400000  0  0
 23 11 28 18 11  3.6400000  0  0
 23 11 28 18 11  4.6400000  0  0
 23 11 28 18 11  5.6400000  0  0
 23 11 28 18 11  6.6400000  0  0
 23 11 28 18 11  7.6400000  0  0
 23 11 28 18 11  8.6400000  0  0
 23 11 28 18 11  9.6400000  0  0
 23 11 28 18 11 10.6400000  0  0
 23 11 28 18 11 11.6400000  0  0
 23 11 28 18 11 12.6400000  0  0
 23 11 28 18 11 13.6400000  0  0
 23 11 28 18 11 14.6400000  0  0
 23 11 28 18 11 15.6400000  0  0
 23 11 28 18 11 16.6400000  0  0
 23 11 28 18 11 17.6400000  0  0
 23 11 28 18 11 18.6400000  0  0
 23 11 28 18 11 19.6400000  0  0
 23 11 28 18 11 20.6400000  0  0
 23 11 28 18 11 21.6400000  0  0
 23 11 28 18 11 22.6400000  0  0
 23 11 28 18 11 23.6400000  0  0
 23 11 28 18 11 24.6400000  0  0
 23 11 28 18 11 25.6400000  0  0
 23 11 28 18 11 26.6400000  0  0
 23 11 28 18 11 27.6400000  0  0
 23 11 28 18 11 28.6400000  0  0
 23 11 28 18 11 29.6400000  0  0
 23 11 28 18 11 30.6400000  0  0
 23 11 28 18 11 31.6400000  0  0
 23 11 28 18 11 32.6400000  0  0
 23 11 28 18 11 33.6400000  0  0
 23 11 28 18 11 34.6400000  0  0
 23 11 28 18 11 35.6400000  0  0
 23 11 28 18 11 36.6400000  0  0
 23 11 28 18 11 37.6400000  0  0
 23 11 28 18 11 38.6400000  0  0
 23 11 28 18 11 39.6400000  0  0
 23 11 28 18 11 40.6400000  0  0
 23 11 28 18 11 41.6400000  0  0
 23 11 28 18 11 42.6400000  0  0
 23 11 28 18 11 43.6400000  0  0
 23 11 28 18 11 44.6400000  0  0
 23 11 28 18 11 45.6400000  0  0
 23 11 28 18 11 46.6400000  0  0
 23 11 28 18 11 47.6400000  0  0
 23 11 28 18 11 48.6400000  0  0
 23 11 28 18 11 49.6400000  0  0
 23 11 28 18 11 50.6400000  0  0
 23 11 28 18 11 51.6400000  0  0
 23 11 28 18 11 52.6400000  0  0
 23 11 28 18 11 53.6400000  0  0
 23 11 28 18 11 54.6400000  0  0
 23 11 28 18 11 55.6400000  0  0
 23 11 28 18 11 56.6400000  0  0
 23 11 28 18 11 57.6400000  0  0
 23 11 28 18 11 58.6400000  0  0
 23 11 28 18 11 59.6400000  0  0
 23 11 28 18 12  0.6400000  0  0
 23 11 28 18 12  1.6400000  0  0
 23 11 28 18 12  2.6400000  0  0
 23 11 28 18 12  3.6400000  0  0
 23 11 28 18 12  4.6400000  0  0
 23 11 28 18 12  5.6400000  0  0
 23 11 28 18 12  6.6400000  0  0
 23 11 28 18 12  7.6400000  0  0
 23 11 28 18 12  8.6400000  0  0
 23 11 28 18 12  9.6400000  0  0
 23 11 28 18 12 10.6400000  0  0
 23 11 28 18 12 11.6400000  0  0
 23 11 28 18 12 12.6400000  0  0
 23 11 28 18 12 13.6400000  0  0
 23 11 28 18 12 14.6400000  0  0
 23 11 28 18 12 15.6400000  0  0
 23 11 28 18 12 16.6400000  0  0
 23 11 28 18 12 17.6400000  0  0
 23 11 28 18 12 18.6400000  0  0
 23 11 28 18 12 19.6400000  0  0
 23 11 28 18 12 20.6400000  0  0
 23 11 28 18 12 21.6400000  0  0
 23 11 28 18 12 22.6400000  0  0
 23 11 28 18 12 23.6400000  0  0
 23 11 28 18 12 24.6400000  0  0
 23 11 28 18 12 25.6400000  0  0
 23 11 28 18 12 26.6400000  0  0
 23 11 28 18 12 27.6400000  0  0
 23 11 28 18 12 28.6400000  0  0
 23 11 28 18 12 29.6400000  0  0
 23 11 28 18 12 30.6400000  0  0
 23 11 28 18 12 31.6400000  0  0
 23 11 28 18 12 32.6400000  0  0
 23 11 28 18 12 33.6400000  0  0
 23 11 28 18 12 34.6400000  0  0
 23 11 28 18 12 35.6400000  0  0
 23 11 28 18 12 36.6400000  0  0
 23 11 28 18 12 37.6400000  0  0
 23 11 28 18 12 38.6400000  0  0
 23 11 28 18 12 39.6400000  0  0
 23 11 28 18 12 40.6400000  0  0
 23 11 28 18 12 41.6400000  0  0
 23 11 28 18 12 42.6400000  0  0
 23 11 28 18 12 43.6400000  0  0
 23 11 28 18 12 44.6400000  0  0
 23 11 28 18 12 45.6400000  0  0
 23 11 28 18 12 46.6400000  0  0
 23 11 28 18 12 47.6400000  0  0
 23 11 28 18 12 48.6400000  0  0
 23 11 28 18 12 49.6400000  0  0
 23 11 28 18 12 50.6400000  0  0
 23 11 28 18 12 51.6400000  0  0
 23 11 28 18 12 52.6400000  0  0
 23 11 28 18 12 53.6400000  0  0
 23 11 28 18 12 54.6400000  0  0
 23 11 28 18 12 55.6400000  0  0
 23 11 28 18 12 56.6400000  0  0
 23 11 28 18 12 57.6400000  0  0
 23 11 28 18 12 58.6400000  0  0
 23 11 28 18 12 59.6400000  0  0
 23 11 28 18 13  0.6400000  0  0
 23 11 28 18 13  1.6400000  0  0
 23 11 28 18 13  2.6400000  0  0
 23 11 28 18 13  3.6400000  0  0
 23 11 28 18 13  4.6400000  0  0
 23 11 28 18 13  5.6400000  0  0
 23 11 28 18 13  6.6400000  0  0
 23 11 28 18 13  7.6400000  0  0
 23 11 28 18 13  8.6400000  0  0
 23 11 28 18 13  9.6400000  0  0
 23 11 28 18 13 10.6400000  0  0
 23 11 28 18 13 11.6400000  0  0
 23 11 28 18 13 12.6400000  0  0
 23 11 28 18 13 13.6400000  0  0
 23 11 28 18 13 14.6400000  0  0
 23 11 28 18 13 15.6400000  0  0
 23 11 28 18 13 16.6400000  0  0
 23 11 28 18 13 17.6400000  0  0
 23 11 28 18 13 18.6400000  0  0
 23 11 28 18 13 19.6400000  0  0
 23 11 28 18 13 20.6400000  0  0
 23 11 28 18 13 21.6400000  0  0
 23 11 28 18 13 22.6400000  0  0
 23 11 28 18 13 23.6400000  0  0
 23 11 28 18 13 24.6400000  0  0
 23 11 28 18 13 25.6400000  0  0
 23 11 28 18 13 26.6400000  0  0
 23 11 28 18 13 27.6400000  0  0
 23 11 28 18 13 28.6400000  0  0
 23 11 28 18 13 29.6400000  0  0
 23 11 28 18 13 30.6400000  0  0
 23 11 28 18 13 31.6400000  0  0
 23 11 28 18 13 32.6400000  0  0
 23 11 28 18 13 33.6400000  0  0
 23 11 28 18 13 34.6400000  0  0
 23 11 28 18 13 35.6400000  0  0
 23 11 28 18 13 36.6400000  0  0
 23 11 28 18 13 37.6400000  0  0
 23 11 28 18 13 38.6400000  0  0
 23 11 28 18 13 39.6400000  0  0
 23 11 28 18 13 40.6400000  0  0
 23 11 28 18 13 41.6400000  0  0
 23 11 28 18 13 42.6400000  0  0
 23 11 28 18 13 43.6400000  0  0
 23 11 28 18 13 44.6400000  0  0
 23 11 28 18 13 45.6400000  0  0
 23 11 28 18 13 46.6400000  0  0
 23 11 28 18 13 47.6400000  0  0
 23 11 28 18 13 48.6400000  0  0
 23 11 28 18 13 49.6400000  0  0
 23 11 28 18 13 50.6400000  0  0
 23 11 28 18 13 51.6400000  0  0
 23 11 28 18 13 52.6400000  0  0
 23 11 28 18 13 53.6400000  0  0
 23 11 28 18 13 54.6400000  0  0
 23 11 28 18 13 55.6400000  0  0
 23 11 28 18 13 56.6400000  0  0
 23 11 28 18 13 57.6400000  0  0
 23 11 28 18 13 58.6400000  0  0
 23 11 28 18 13 59.6400000  0  0
 23 11 28 18 14  0.6400000  0  0
 23 11 28 18 14  1.6400000  0  0
 23 11 28 18 14  2.6400000  0  0
 23 11 28 18 14  3.6400000  0  0
 23 11 28 18 14  4.6400000  0  0
 23 11 28 18 14  5.6400000  0  0
 23 11 28 18 14  6.6400000  0  0
 23 11 28 18 14  7.6400000  0  0
 23 11 28 18 14  8.6400000  0  0
 23 11 28 18 14  9.6400000  0  0
 23 11 28 18 14 10.6400000  0  0
 23 11 28 18 14 11.6400000  0  0
 23 11 28 18 14 12.6400000  0  0
 23 11 28 18 14 13.6400000  0  0
 23 11 28 18 14 14.6400000  0  0
 23 11 28 18 14 15.6400000  0  0
 23 11 28 18 14 16.6400000  0  0
 23 11 28 18 14 17.6400000  0  0
 23 11 28 18 14 18.6400000  0  0
 23 11 28 18 14 19.6400000  0  0
 23 11 28 18 14 20.6400000  0  0
 23 11 28 18 14 21.6400000  0  0
 23 11 28 18 14 22.6400000  0  0
 23 11 28 18 14 23.6400000  0  0
 23 11 28 18 14 24.6400000  0  0
 23 11 28 18 14 25.6400000  0  0
 23 11 28 18 14 26.6400000  0  0
 23 11 28 18 14 27.6400000  0  0
 23 11 28 18 14 28.6400000  0  0
 23 11 28 18 14 29.6400000  0  0
 23 11 28 18 14 30.6400000  0  0
 23 11 28 18 14 31.6400000  0  0
 23 11 28 18 14 32.6400000  0  0
 23 11 28 18 14 33.6400000  0  0
 23 11 28 18 14 34.6400000  0  0
 23 11 28 18 14 35.6400000  0  0
 23 11 28 18 14 36.6400000  0  0
 23 11 28 18 14 37.6400000  0  0
 23 11 28 18 14 38.6400000  0  0
 23 11 28 18 14 39.6400000  0  0
 23 11 28 18 14 40.6400000  0  0
 23 11 28 18 14 41.6400000  0  0
 23 11 28 18 14 42.6400000  0  0
 23 11 28 18 14 43.6400000  0  0
 23 11 28 18 14 44.6400000  0  0
 23 11 28 18 14 45.6400000  0  0
 23 11 28 18 14 46.6400000  0  0
 23 11 28 18 14 47.6400000  0  0
 23 11 28 18 14 48.6400000  0  0
 23 11 28 18 14 49.6400000  0  0
 23 11 28 18 14 50.6400000  0  0
 23 11 28 18 14 51.6400000  0  0
 23 11 28 18 14 52.6400000  0  0
 23 11 28 18 14 53.6400000  0  0
 23 11 28 18 14 54.6400000  0  0
 23 11 28 18 14 55.6400000  0  0
 23 11 28 18 14 56.6400000  0  0
 23 11 28 18 14 57.6400000  0  0
 23 11 28 18 14 58.6400000  0  0
 23 11 28 18 14 59.6400000  0  0
 23 11 28 18 15  0.6400000  0  0
 23 11 28 18 15  1.6400000  0  0
 23 11 28 18 15  2.6400000  0  0
 23 11 28 18 15  3.6400000  0  0
 23 11 28 18 15  4.6400000  0  0
 23 11 28 18 15  5.6400000  0  0
 23 11 28 18 15  6.6400000  0  0
 23 11 28 18 15  7.6400000  0  0
 23 11 28 18 15  8.6400000  0  0
 23 11 28 18 15  9.6400000  0  0
 23 11 28 18 15 10.6400000  0  0
 23 11 28 18 15 11.6400000  0  0
 23 11 28 18 15 12.6400000  0  0
 23 11 28 18 15 13.6400000  0  0
 23 11 28 18 15 14.6400000  0  0
 23 11 28 18 15 15.6400000  0  0
 23 11 28 18 15 16.6400000  0  0
 23 11 28 18 15 17.6400000  0  0
 23 11 28 18 15 18.6400000  0  0
 23 11 28 18 15 19.6400000  0  0
 23 11 28 18 15 20.6400000  0  0
 23 11 28 18 15 21.6400000  0  0
 23 11 28 18 15 22.6400000  0  0
 23 11 28 18 15 23.6400000  0  0
 23 11 28 18 15 24.6400000  0  0
 23 11 28 18 15 25.6400000  0  0
 23 11 28 18 15 26.6400000  0  0
 23 11 28 18 15 27.6400000  0  0
 23 11 28 18 15 28.6400000  0  0
 23 11 28 18 15 29.6400000  0  0
 23 11 28 18 15 30.6400000  0  0
 23 11 28 18 15 31.6400000  0  0
 23 11 28 18 15 32.6400000  0  0
 23 11 28 18 15 33.6400000  0  0
 23 11 28 18 15 34.6400000  0  0
 23 11 28 18 15 35.6400000  0  0
 23 11 28 18 15 36.6400000  0  0
 23 11 28 18 15 37.6400000  0  0
 23 11 28 18 15 38.6400000  0  0
 23 11 28 18 15 39.6400000  0  0
 23 11 28 18 15 40.6400000  0  0
 23 11 28 18 15 41.6400000  0  0
 23 11 28 18 15 42.6400000  0  0
 23 11 28 18 15 43.6400000  0  0
 23 11 28 18 15 44.6400000  0  0
 23 11 28 18 15 45.6400000  0  0
 23 11 28 18 15 46.6400000  0  0
 23 11 28 18 15 47.6400000  0  0
 23 11 28 18 15 48.6400000  0  0
 23 11 28 18 15 49.6400000  0  0
 23 11 28 18 15 50.6400000  0  0
 23 11 28 18 15 51.6400000  0  0
 23 11 28 18 15 52.6400000  0  0
 23 11 28 18 15 53.6400000  0  0
 23 11 28 18 15 54.6400000  0  0
 23 11 28 18 15 55.6400000  0  0
 23 11 28 18 15 56.6400000  0  0
 23 11 28 18 15 57.6400000  0  0
 23 11 28 18 15 58.6400000  0  0
 23 11 28 18 15 59.6400000  0  0
 23 11 28 18 16  0.6400000  0  0
 23 11 28 18 16  1.6400000  0  0
 23 11 28 18 16  2.6400000  0  0
 23 11 28 18 16  3.6400000  0  0
 23 11 28 18 16  4.6400000  0  0
 23 11 28 18 16  5.6400000  0  0
 23 11 28 18 16  6.6400000  0  0
 23 11 28 18 16  7.6400000  0  0
 23 11 28 18 16  8.6400000  0  0
 23 11 28 18 16  9.6400000  0  0
 23 11 28 18 16 10.6400000  0  0
 23 11 28 18 16 11.6400000  0  0
 23 11 28 18 16 12.6400000  0  0
 23 11 28 18 16 13.6400000  0  0
 23 11 28 18 16 14.6400000  0  0
 23 11 28 18 16 15.6400000  0  0
 23 11 28 18 16 16.6400000  0  0
 23 11 28 18 16 17.6400000  0  0
 23 11 28 18 16 18.6400000  0  0
 23 11 28 18 16 19.6400000  0  0
 23 11 28 18 16 20.6400000  0  0
 23 11 28 18 16 21.6400000  0  0
 23 11 28 18 16 22.6400000  0  0
 23 11 28 18 16 23.6400000  0  0
 23 11 28 18 16 24.6400000  0  0
 23 11 28 18 16 25.6400000  0  0
 23 11 28 18 16 26.6400000  0  0
 23 11 28 18 16 27.6400000  0  0
 23 11 28 18 16 28.6400000  0  0
 23 11 28 18 16 29.6400000  0  0
 23 11 28 18 16 30.6400000  0  0
 23 11 28 18 16 31.6400000  0  0
 23 11 28 18 16 32.6400000  0  0
 23 11 28 18 16 33.6400000  0  0
 23 11 28 18 16 34.6400000  0  0
 23 11 28 18 16 35.6400000  0  0
 23 11 28 18 16 36.6400000  0  0
 23 11 28 18 16 37.6400000  0  0
 23 11 28 18 16 38.6400000  0  0
 23 11 28 18 16 39.6400000  0  0
 23 11 28 18 16 40.6400000  0  0
 23 11 28 18 16 41.6400000  0  0
 23 11 28 18 16 42.6400000  0  0
 23 11 28 18 16 43.6400000  0  0
 23 11 28 18 16 44.6400000  0  0
 23 11 28 18 16 45.6400000  0  0
 23 11 28 18 16 46.6400000  0  0
 23 11 28 18 16 47.6400000  0  0
 23 11 28 18 16 48.6400000  0  0
 23 11 28 18 16 49.6400000  0  0
 23 11 28 18 16 50.6400000  0  0
 23 11 28 18 16 51.6400000  0  0
 23 11 28 18 16 52.6400000  0  0
 23 11 28 18 16 53.6400000  0  0
 23 11 28 18 16 54.6400000  0  0
 23 11 28 18 16 55.6400000  0  0
 23 11 28 18 16 56.6400000  0  0
 23 11 28 18 16 57.6400000  0  0
 23 11 28 18 16 58.6400000  0  0
 23 11 28 18 16 59.6400000  0  0
 23 11 28 18 17  0.6400000  0  0
 23 11 28 18 17  1.6400000  0  0
 23 11 28 18 17  2.6400000  0  0
 23 11 28 18 17  3.6400000  0  0
 23 11 28 18 17  4.6400000  0  0
 23 11 28 18 17  5.6400000  0  0
 23 11 28 18 17  6.6400000  0  0
 23 11 28 18 17  7.6400000  0  0
 23 11 28 18 17  8.6400000  0  0
 23 11 28 18 17  9.6400000  0  0
 23 11 28 18 17 10.6400000  0  0
 23 11 28 18 17 11.6400000  0  0
 23 11 28 18 17 12.6400000  0  0
 23 11 28 18 17 13.6400000  0  0
 23 11 28 18 17 14.6400000  0  0
 23 11 28 18 17 15.6400000  0  0
 23 11 28 18 17 16.6400000  0  0
 23 11 28 18 17 17.6400000  0  0
 23 11 28 18 17 18.6400000  0  0
 23 11 28 18 17 19.6400000  0  0
 23 11 28 18 17 20.6400000  0  0
 23 11 28 18 17 21.6400000  0  0
 23 11 28 18 17 22.6400000  0  0
 23 11 28 18 17 23.6400000  0  0
 23 11 28 18 17 24.6400000  0  0
 23 11 28 18 17 25.6400000  0  0
 23 11 28 18 17 26.6400000  0  0
 23 11 28 18 17 27.6400000  0  0
 23 11 28 18 17 28.6400000  0  0
 23 11 28 18 17 29.6400000  0  0
 23 11 28 18 17 30.6400000  0  0
 23 11 28 18 17 31.6400000  0  0
 23 11 28 18 17 32.6400000  0  0
 23 11 28 18 17 33.6400000  0  0
 23 11 28 18 17 34.6400000  0  0
 23 11 28 18 17 35.6400000  0  0
 23 11 28 18 17 36.6400000  0  0
 23 11 28 18 17 37.6400000  0  0
 23 11 28 18 17 38.6400000  0  0
 23 11 28 18 17 39.6400000  0  0
 23 11 28 18 17 40.6400000  0  0
 23 11 28 18 17 41.6400000  0  0
 23 11 28 18 17 42.6400000  0  0
 23 11 28 18 17 43.6400000  0  0
 23 11 28 18 17 44.6400000  0  0
 23 11 28 18 17 45.6400000  0  0
 23 11 28 18 17 46.6400000  0  0
 23 11 28 18 17 47.6400000  0  0
 23 11 28 18 17 48.6400000  0  0
 23 11 28 18 17 49.6400000  0  0
 23 11 28 18 17 50.6400000  0  0
 23 11 28 18 17 51.6400000  0  0
 23 11 28 18 17 52.6400000  0  0
 23 11 28 18 17 53.6400000  0  0
 23 11 28 18 17 54.6400000  0  0
 23 11 28 18 17 55.6400000  0  0
 23 11 28 18 17 56.6400000  0  0
 23 11 28 18 17 57.6400000  0  0
 23 11 28 18 17 58.6400000  0  0
 23 11 28 18 17 59.6400000  0  0
 23 11 28 18 18  0.6400000  0  0
 23 11 28 18 18  1.6400000  0  0
 23 11 28 18 18  2.6400000  0  0
 23 11 28 18 18  3.6400000  0  0
 23 11 28 18 18  4.6400000  0  0
 23 11 28 18 18  5.6400000  0  0
 23 11 28 18 18  6.6400000  0  0
 23 11 28 18 18  7.6400000  0  0
 23 11 28 18 18  8.6400000  0  0
 23 11 28 18 18  9.6400000  0  0
 23 11 28 18 18 10.6400000  0  0
 23 11 28 18 18 11.6400000  0  0
 23 11 28 18 18 12.6400000  0  0
 23 11 28 18 18 13.6400000  0  0
 23 11 28 18 18 14.6400000  0  0
 23 11 28 18 18 15.6400000  0  0
 23 11 28 18 18 16.6400000  0  0
 23 11 28 18 18 17.6400000  0  0
 23 11 28 18 18 18.6400000  0  0
 23 11 28 18 18 19.6400000  0  0
 23 11 28 18 18 20.6400000  0  0
 23 11 28 18 18 21.6400000  0  0
 23 11 28 18 18 22.6400000  0  0
 23 11 28 18 18 23.6400000  0  0
 23 11 28 18 18 24.6400000  0  0
 23 11 28 18 18 25.6400000  0  0
 23 11 28 18 18 26.6400000  0  0
 23 11 28 18 18 27.6400000  0  0
 23 11 28 18 18 28.6400000  0  0
 23 11 28 18 18 29.6400000  0  0
 23 11 28 18 18 30.6400000  0  0
 23 11 28 18 18 31.6400000  0  0
 23 11 28 18 18 32.6400000  0  0
 23 11 28 18 18 33.6400000  0  0
 23 11 28 18 18 34.6400000  0  0
 23 11 28 18 18 35.6400000  0  0
 23 11 28 18 18 36.6400000  0  0
 23 11 28 18 18 37.6400000  0  0
 23 11 28 18 18 38.6400000  0  0
 23 11 28 18 18 39.6400000  0  0
 23 11 28 18 18 40.6400000  0  0
 23 11 28 18 18 41.6400000  0  0
 23 11 28 18 18 42.6400000  0  0
 23 11 28 18 18 43.6400000  0  0
 23 11 28 18 18 44.6400000  0  0
 23 11 28 18 18 45.6400000  0  0
 23 11 28 18 18 46.6400000  0  0
 23 11 28 18 18 47.6400000  0  0
 23 11 28 18 18 48.6400000  0  0
 23 11 28 18 18 49.6400000  0  0
 23 11 28 18 18 50.6400000  0  0
 23 11 28 18 18 51.6400000  0  0
 23 11 28 18 18 52.6400000  0  0
 23 11 28 18 18 53.6400000  0  0
 23 11 28 18 18 54.6400000  0  0
 23 11 28 18 18 55.6400000  0  0
 23 11 28 18 18 56.6400000  0  0
 23 11 28 18 18 57.6400000  0  0
 23 11 28 18 18 58.6400000  0  0
 23 11 28 18 18 59.6400000  0  0
 23 11 28 18 19  0.6400000  0  0
 23 11 28 18 19  1.6400000  0  0
 23 11 28 18 19  2.6400000  0  0
 23 11 28 18 19  3.6400000  0  0
 23 11 28 18 19  4.6400000  0  0
 23 11 28 18 19  5.6400000  0  0
 23 11 28 18 19  6.6400000  0  0
 23 11 28 18 19  7.6400000  0  0
 23 11 28 18 19  8.6400000  0  0
 23 11 28 18 19  9.6400000  0  0
 23 11 28 18 19 10.6400000  0  0
 23 11 28 18 19 11.6400000  0  0
 23 11 28 18 19 12.6400000  0  0
 23 11 28 18 19 13.6400000  0  0
 23 11 28 18 19 14.6400000  0  0
 23 11 28 18 19 15.6400000  0  0
 23 11 28 18 19 16.6400000  0  0
 23 11 28 18 19 17.6400000  0  0
 23 11 28 18 19 18.6400000  0  0
 23 11 28 18 19 19.6400000  0  0
 23 11 28 18 19 20.6400000  0  0
 23 11 28 18 19 21.6400000  0  0
 23 11 28 18 19 22.6400000  0  0
 23 11 28 18 19 23.6400000  0  0
 23 11 28 18 19 24.6400000  0  0
 23 11 28 18 19 25.6400000  0  0
 23 11 28 18 19 26.6400000  0  0
 23 11 28 18 19 27.6400000  0  0
 23 11 28 18 19 28.6400000  0  0
 23 11 28 18 19 29.6400000  0  0
 23 11 28 18 19 30.6400000  0  0
 23 11 28 18 19 31.6400000  0  0
 23 11 28 18 19 32.6400000  0  0
 23 11 28 18 19 33.6400000  0  0
 23 11 28 18 19 34.6400000  0  0
 23 11 28 18 19 35.6400000  0  0
 23 11 28 18 19 36.6400000  0  0
 23 11 28 18 19 37.6400000  0  0
 23 11 28 18 19 38.6400000  0  0
 23 11 28 18 19 39.6400000  0  0
 23 11 28 18 19 40.6400000  0  0
 23 11 28 18 19 41.6400000  0  0
 23 11 28 18 19 42.6400000  0  0
 23 11 28 18 19 43.6400000  0  0
 23 11 28 18 19 44.6400000  0  0
 23 11 28 18 19 45.6400000  0  0
 23 11 28 18 19 46.6400000  0  0
 23 11 28 18 19 47.6400000  0  0
 23 11 28 18 19 48.6400000  0  0
 23 11 28 18 19 49.6400000  0  0
 23 11 28 18 19 50.6400000  0  0
 23 11 28 18 19 51.6400000  0  0
 23 11 28 18 19 52.6400000  0  0
 23 11 28 18 19 53.6400000  0  0
 23 11 28 18 19 54.6400000  0  0
 23 11 28 18 19 55.6400000  0  0
 23 11 28 18 19 56.6400000  0  0
 23 11 28 18 19 57.6400000  0  0
 23 11 28 18 19 58.6400000  0  0
 23 11 28 18 19 59.6400000  0  0
 23 11 28 18 20  0.6400000  0  0
 23 11 28 18 20  1.6400000  0  0
 23 11 28 18 20  2.6400000  0  0
 23 11 28 18 20  3.6400000  0  0
 23 11 28 18 20  4.6400000  0  0
 23 11 28 18 20  5.6400000  0  0
 23 11 28 18 20  6.6400000  0  0
 23 11 28 18 20  7.6400000  0  0
 23 11 28 18 20  8.6400000  0  0
 23 11 28 18 20  9.6400000  0  0
 23 11 28 18 20 10.6400000  0  0
 23 11 28 18 20 11.6400000  0  0
 23 11 28 18 20 12.6400000  0  0
 23 11 28 18 20 13.6400000  0  0
 23 11 28 18 20 14.6400000  0  0
 23 11 28 18 20 15.6400000  0  0
 23 11 28 18 20 16.6400000  0  0
 23 11 28 18 20 17.6400000  0  0
 23 11 28 18 20 18.6400000  0  0
 23 11 28 18 20 19.6400000  0  0
 23 11 28 18 20 20.6400000  0  0
 23 11 28 18 20 21.6400000  0  0
 23 11 28 18 20 22.6400000  0  0
 23 11 28 18 20 23.6400000  0  0
 23 11 28 18 20 24.6400000  0  0
 23 11 28 18 20 25.6400000  0  0
 23 11 28 18 20 26.6400000  0  0
 23 11 28 18 20 27.6400000  0  0
 23 11 28 18 20 28.6400000  0  0
 23 11 28 18 20 29.6400000  0  0
 23 11 28 18 20 30.6400000  0  0
 23 11 28 18 20 31.6400000  0  0
 23 11 28 18 20 32.6400000  0  0
 23 11 28 18 20 33.6400000  0  0
 23 11 28 18 20 34.6400000  0  0
 23 11 28 18 20 35.6400000  0  0
 23 11 28 18 20 36.6400000  0  0
 23 11 28 18 20 37.6400000  0  0
 23 11 28 18 20 38.6400000  0  0
 23 11 28 18 20 39.6400000  0  0
 23 11 28 18 20 40.6400000  0  0
 23 11 28 18 20 41.6400000  0  0
 23 11 28 18 20 42.6400000  0  0
 23 11 28 18 20 43.6400000  0  0
 23 11 28 18 20 44.6400000  0  0
 23 11 28 18 20 45.6400000  0  0
 23 11 28 18 20 46.6400000  0  0
 23 11 28 18 20 47.6400000  0  0
 23 11 28 18 20 48.6400000  0  0
 23 11 28 18 20 49.6400000  0  0
 23 11 28 18 20 50.6400000  0  0
 23 11 28 18 20 51.6400000  0  0
 23 11 28 18 20 52.6400000  0  0
 23 11 28 18 20 53.6400000  0  0
 23 11 28 18 20 54.6400000  0  0
 23 11 28 18 20 55.6400000  0  0
 23 11 28 18 20 56.6400000  0  0
 23 11 28 18 20 57.6400000  0  0
 23 11 28 18 20 58.6400000  0  0
 23 11 28 18 20 59.6400000  0  0
 23 11 28 18 21  0.6400000  0  0
 23 11 28 18 21  1.6400000  0  0
 23 11 28 18 21  2.6400000  0  0
 23 11 28 18 21  3.6400000  0  0
 23 11 28 18 21  4.6400000  0  0
 23 11 28 18 21  5.6400000  0  0
 23 11 28 18 21  6.6400000  0  0
 23 11 28 18 21  7.6400000  0  0
 23 11 28 18 21  8.6400000  0  0
 23 11 28 18 21  9.6400000  0  0
 23 11 28 18 21 10.6400000  0  0
 23 11 28 18 21 11.6400000  0  0
 23 11 28 18 21 12.6400000  0  0
 23 11 28 18 21 13.6400000  0  0
 23 11 28 18 21 14.6400000  0  0
 23 11 28 18 21 15.6400000  0  0
 23 11 28 18 21 16.6400000  0  0
 23 11 28 18 21 17.6400000  0  0
 23 11 28 18 21 18.6400000  0  0
 23 11 28 18 21 19.6400000  0  0
 23 11 28 18 21 20.6400000  0  0
 23 11 28 18 21 21.6400000  0  0
 23 11 28 18 21 22.6400000  0  0
 23 11 28 18 21 23.6400000  0  0
 23 11 28 18 21 24.6400000  0  0
 23 11 28 18 21 25.6400000  0  0
 23 11 28 18 21 26.6400000  0  0
 23 11 28 18 21 27.6400000  0  0
 23 11 28 18 21 28.6400000  0  0
 23 11 28 18 21 29.6400000  0  0
 23 11 28 18 21 30.6400000  0  0
 23 11 28 18 21 31.6400000  0  0
 23 11 28 18 21 32.6400000  0  0
 23 11 28 18 21 33.6400000  0  0
 23 11 28 18 21 34.6400000  0  0
 23 11 28 18 21 35.6400000  0  0
 23 11 28 18 21 36.6400000  0  0
 23 11 28 18 21 37.6400000  0  0
 23 11 28 18 21 38.6400000  0  0
 23 11 28 18 21 39.6400000  0  0
 23 11 28 18 21 40.6400000  0  0
 23 11 28 18 21 41.6400000  0  0
 23 11 28 18 21 42.6400000  0  0
 23 11 28 18 21 43.6400000  0  0
 23 11 28 18 21 44.6400000  0  0
 23 11 28 18 21 45.6400000  0  0
 23 11 28 18 21 46.6400000  0  0
 23 11 28 18 21 47.6400000  0  0
 23 11 28 18 21 48.6400000  0  0
 23 11 28 18 21 49.6400000  0  0
 23 11 28 18 21 50.6400000  0  0
 23 11 28 18 21 51.6400000  0  0
 23 11 28 18 21 52.6400000  0  0
 23 11 28 18 21 53.6400000  0  0
 23 11 28 18 21 54.6400000  0  0
 23 11 28 18 21 55.6400000  0  0
 23 11 28 18 21 56.6400000  0  0
 23 11 28 18 21 57.6400000  0  0
 23 11 28 18 21 58.6400000  0  0
 23 11 28 18 21 59.6400000  0  0
 23 11 28 18 22  0.6400000  0  0
 23 11 28 18 22  1.6400000  0  0
 23 11 28 18 22  2.6400000  0  0
 23 11 28 18 22  3.6400000  0  0
 23 11 28 18 22  4.6400000  0  0
 23 11 28 18 22  5.6400000  0  0
 23 11 28 18 22  6.6400000  0  0
 23 11 28 18 22  7.6400000  0  0
 23 11 28 18 22  8.6400000  0  0
 23 11 28 18 22  9.6400000  0  0
 23 11 28 18 22 10.6400000  0  0
 23 11 28 18 22 11.6400000  0  0
 23 11 28 18 22 12.6400000  0  0
 23 11 28 18 22 13.6400000  0  0
 23 11 28 18 22 14.6400000  0  0
 23 11 28 18 22 15.6400000  0  0
 23 11 28 18 22 16.6400000  0  0
 23 11 28 18 22 17.6400000  0  0
 23 11 28 18 22 18.6400000  0  0
 23 11 28 18 22 19.6400000  0  0
 23 11 28 18 22 20.6400000  0  0
 23 11 28 18 22 21.6400000  0  0
 23 11 28 18 22 22.6400000  0  0
 23 11 28 18 22 23.6400000  0  0
 23 11 28 18 22 24.6400000  0  0
 23 11 28 18 22 25.6400000  0  0
 23 11 28 18 22 26.6400000  0  0
 23 11 28 18 22 27.6400000  0  0
 23 11 28 18 22 28.6400000  0  0
 23 11 28 18 22 29.6400000  0  0
 23 11 28 18 22 30.6400000  0  0
 23 11 28 18 22 31.6400000  0  0
 23 11 28 18 22 32.6400000  0  0
 23 11 28 18 22 33.6400000  0  0
 23 11 28 18 22 34.6400000  0  0
 23 11 28 18 22 35.6400000  0  0
 23 11 28 18 22 36.6400000  0  0
 23 11 28 18 22 37.6400000  0  0
 23 11 28 18 22 38.6400000  0  0
 23 11 28 18 22 39.6400000  0  0
 23 11 28 18 22 40.6400000  0  0
 23 11 28 18 22 41.6400000  0  0
 23 11 28 18 22 42.6400000  0  0
 23 11 28 18 22 43.6400000  0  0
 23 11 28 18 22 44.6400000  0  0
 23 11 28 18 22 45.6400000  0  0
 23 11 28 18 22 46.6400000  0  0
 23 11 28 18 22 47.6400000  0  0
 23 11 28 18 22 48.6400000  0  0
 23 11 28 18 22 49.6400000  0  0
 23 11 28 18 22 50.6400000  0  0
 23 11 28 18 22 51.6400000  0  0
 23 11 28 18 22 52.6400000  0  0
 23 11 28 18 22 53.6400000  0  0
 23 11 28 18 22 54.6400000  0  0
 23 11 28 18 22 55.6400000  0  0
 23 11 28 18 22 56.6400000  0  0
 23 11 28 18 22 57.6400000  0  0
 23 11 28 18 22 58.6400000  0  0
 23 11 28 18 22 59.6400000  0  0
 23 11 28 18 23  0.6400000  0  0
 23 11 28 18 23  1.6400000  0  0
 23 11 28 18 23  2.6400000  0  0
 23 11 28 18 23  3.6400000  0  0
 23 11 28 18 23  4.6400000  0  0
 23 11 28 18 23  5.6400000  0  0
 23 11 28 18 23  6.6400000  0  0
 23 11 28 18 23  7.6400000  0  0
 23 11 28 18 23  8.6400000  0  0
 23 11 28 18 23  9.6400000  0  0
 23 11 28 18 23 10.6400000  0  0
 23 11 28 18 23 11.6400000  0  0
 23 11 28 18 23 12.6400000  0  0
 23 11 28 18 23 13.6400000  0  0
 23 11 28 18 23 14.6400000  0  0
 23 11 28 18 23 15.6400000  0  0
 23 11 28 18 23 16.6400000  0  0
 23 11 28 18 23 17.6400000  0  0
 23 11 28 18 23 18.6400000  0  0
 23 11 28 18 23 19.6400000  0  0
 23 11 28 18 23 20.6400000  0  0
 23 11 28 18 23 21.6400000  0  0
 23 11 28 18 23 22.6400000  0  0
 23 11 28 18 23 23.6400000  0  0
 23 11 28 18 23 24.6400000  0  0
 23 11 28 18 23 25.6400000  0  0
 23 11 28 18 23 26.6400000  0  0
 23 11 28 18 23 27.6400000  0  0
 23 11 28 18 23 28.6400000  0  0
 23 11 28 18 23 29.6400000  0  0
 23 11 28 18 23 30.6400000  0  0
 23 11 28 18 23 31.6400000  0  0
 23 11 28 18 23 32.6400000  0  0
 23 11 28 18 23 33.6400000  0  0
 23 11 28 18 23 34.6400000  0  0
 23 11 28 18 23 35.6400000  0  0
 23 11 28 18 23 36.6400000  0  0
 23 11 28 18 23 37.6400000  0  0
 23 11 28 18 23 38.6400000  0  0
 23 11 28 18 23 39.6400000  0  0
 23 11 28 18 23 40.6400000  0  0
 23 11 28 18 23 41.6400000  0  0
 23 11 28 18 23 42.6400000  0  0
 23 11 28 18 23 43.6400000  0  0
 23 11 28 18 23 44.6400000  0  0
 23 11 28 18 23 45.6400000  0  0
 23 11 28 18 23 46.6400000  0  0
 23 11 28 18 23 47.6400000  0  0
 23 11 28 18 23 48.6400000  0  0
 23 11 28 18 23 49.6400000  0  0
 23 11 28 18 23 50.6400000  0  0
 23 11 28 18 23 51.6400000  0  0
 23 11 28 18 23 52.6400000  0  0
 23 11 28 18 23 53.6400000  0  0
 23 11 28 18 23 54.6400000  0  0
 23 11 28 18 23 55.6400000  0  0
 23 11 28 18 23 56.6400000  0  0
 23 11 28 18 23 57.6400000  0  0
 23 11 28 18 23 58.6400000  0  0
 23 11 28 18 23 59.6400000  0  0
 23 11 28 18 24  0.6400000  0  0
 23 11 28 18 24  1.6400000  0  0
 23 11 28 18 24  2.6400000  0  0
 23 11 28 18 24  3.6400000  0  0
 23 11 28 18 24  4.6400000  0  0
 23 11 28 18 24  5.6400000  0  0
 23 11 28 18 24  6.6400000  0  0
 23 11 28 18 24  7.6400000  0  0
 23 11 28 18 24  8.6400000  0  0
 23 11 28 18 24  9.6400000  0  0
 23 11 28 18 24 10.6400000  0  0
 23 11 28 18 24 11.6400000  0  0
 23 11 28 18 24 12.6400000  0  0
 23 11 28 18 24 13.6400000  0  0
 23 11 28 18 24 14.6400000  0  0
 23 11 28 18 24 15.6400000  0  0
 23 11 28 18 24 16.6400000  0  0
 23 11 28 18 24 17.6400000  0  0
 23 11 28 18 24 18.6400000  0  0
 23 11 28 18 24 19.6400000  0  0
 23 11 28 18 24 20.6400000  0  0
 23 11 28 18 24 21.6400000  0  0
 23 11 28 18 24 22.6400000  0  0
 23 11 28 18 24 23.6400000  0  0
 23 11 28 18 24 24.6400000  0  0
 23 11 28 18 24 25.6400000  0  0
 23 11 28 18 24 26.6400000  0  0
 23 11 28 18 24 27.6400000  0  0
 23 11 28 18 24 28.6400000  0  0
 23 11 28 18 24 29.6400000  0  0
 23 11 28 18 24 30.6400000  0  0
 23 11 28 18 24 31.6400000  0  0
 23 11 28 18 24 32.6400000  0  0
 23 11 28 18 24 33.6400000  0  0
 23 11 28 18 24 34.6400000  0  0
 23 11 28 18 24 35.6400000  0  0
 23 11 28 18 24 36.6400000  0  0
 23 11 28 18 24 37.6400000  0  0
 23 11 28 18 24 38.6400000  0  0
 23 11 28 18 24 39.6400000  0  0
 23 11 28 18 24 40.6400000  0  0
 23 11 28 18 24 41.6400000  0  0
 23 11 28 18 24 42.6400000  0  0
 23 11 28 18 24 43.6400000  0  0
 23 11 28 18 24 44.6400000  0  0
 23 11 28 18 24 45.6400000  0  0
 23 11 28 18 24 46.6400000  0  0
 23 11 28 18 24 47.6400000  0  0
 23 11 28 18 24 48.6400000  0  0
 23 11 28 18 24 49.6400000  0  0
 23 11 28 18 24 50.6400000  0  0
 23 11 28 18 24 51.6400000  0  0
 23 11 28 18 24 52.6400000  0  0
 23 11 28 18 24 53.6400000  0  0
 23 11 28 18 24 54.6400000  0  0
 23 11 28 18 24 55.6400000  0  0
 23 11 28 18 24 56.6400000  0  0
 23 11 28 18 24 57.6400000  0  0
 23 11 28 18 24 58.6400000  0  0
 23 11 28 18 24 59.6400000  0  0
 23 11 28 18 25  0.6400000  0  0
 23 11 28 18 25  1.6400000  0  0
 23 11 28 18 25  2.6400000  0  0
 23 11 28 18 25  3.6400000  0  0
 23 11 28 18 25  4.6400000  0  0
 23 11 28 18 25  5.6400000  0  0
 23 11 28 18 25  6.6400000  0  0
 23 11 28 18 25  7.6400000  0  0
 23 11 28 18 25  8.6400000  0  0
 23 11 28 18 25  9.6400000  0  0
 23 11 28 18 25 10.6400000  0  0
 23 11 28 18 25 11.6400000  0  0
 23 11 28 18 25 12.6400000  0  0
 23 11 28 18 25 13.6400000  0  0
 23 11 28 18 25 14.6400000  0  0
 23 11 28 18 25 15.6400000  0  0
 23 11 28 18 25 16.6400000  0  0
 23 11 28 18 25 17.6400000  0  0
 23 11 28 18 25 18.6400000  0  0
 23 11 28 18 25 19.6400000  0  0
 23 11 28 18 25 20.6400000  0  0
 23 11 28 18 25 21.6400000  0  0
 23 11 28 18 25 22.6400000  0  0
 23 11 28 18 25 23.6400000  0  0
 23 11 28 18 25 24.6400000  0  0
 23 11 28 18 25 25.6400000  0  0
 23 11 28 18 25 26.6400000  0  0
 23 11 28 18 25 27.6400000  0  0
 23 11 28 18 25 28.6400000  0  0
 23 11 28 18 25 29.6400000  0  0
 23 11 28 18 25 30.6400000  0  0
 23 11 28 18 25 31.6400000  0  0
 23 11 28 18 25 32.6400000  0  0
 23 11 28 18 25 33.6400000  0  0
 23 11 28 18 25 34.6400000  0  0
 23 11 28 18 25 35.6400000  0  0
 23 11 28 18 25 36.6400000  0  0
 23 11 28 18 25 37.6400000  0  0
 23 11 28 18 25 38.6400000  0  0
 23 11 28 18 25 39.6400000  0  0
 23 11 28 18 25 40.6400000  0  0
 23 11 28 18 25 41.6400000  0  0
 23 11 28 18 25 42.6400000  0  0
 23 11 28 18 25 43.6400000  0  0
 23 11 28 18 25 44.6400000  0  0
 23 11 28 18 25 45.6400000  0  0
 23 11 28 18 25 46.6400000  0  0
 23 11 28 18 25 47.6400000  0  0
 23 11 28 18 25 48.6400000  0  0
 23 11 28 18 25 49.6400000  0  0
 23 11 28 18 25 50.6400000  0  0
 23 11 28 18 25 51.6400000  0  0
 23 11 28 18 25 52.6400000  0  0
 23 11 28 18 25 53.6400000  0  0
 23 11 28 18 25 54.6400000  0  0
 23 11 28 18 25 55.6400000  0  0
 23 11 28 18 25 56.6400000  0  0
 23 11 28 18 25 57.6400000  0  0
 23 11 28 18 25 58.6400000  0  0
 23 11 28 18 25 59.6400000  0  0
 23 11 28 18 26  0.6400000  0  0
 23 11 28 18 26  1.6400000  0  0
 23 11 28 18 26  2.6400000  0  0
 23 11 28 18 26  3.6400000  0  0
 23 11 28 18 26  4.6400000  0  0
 23 11 28 18 26  5.6400000  0  0
 23 11 28 18 26  6.6400000  0  0
 23 11 28 18 26  7.6400000  0  0
 23 11 28 18 26  8.6400000  0  0
 23 11 28 18 26  9.6400000  0  0
 23 11 28 18 26 10.6400000  0  0
 23 11 28 18 26 11.6400000  0  0
 23 11 28 18 26 12.6400000  0  0
 23 11 28 18 26 13.6400000  0  0
 23 11 28 18 26 14.6400000  0  0
 23 11 28 18 26 15.6400000  0  0
 23 11 28 18 26 16.6400000  0  0
 23 11 28 18 26 17.6400000  0  0
 23 11 28 18 26 18.6400000  0  0
 23 11 28 18 26 19.6400000  0  0
 23 11 28 18 26 20.6400000  0  0
 23 11 28 18 26 21.6400000  0  0
 23 11 28 18 26 22.6400000  0  0
 23 11 28 18 26 23.6400000  0  0
 23 11 28 18 26 24.6400000  0  0
 23 11 28 18 26 25.6400000  0  0
 23 11 28 18 26 26.6400000  0  0
 23 11 28 18 26 27.6400000  0  0
 23 11 28 18 26 28.6400000  0  0
 23 11 28 18 26 29.6400000  0  0
 23 11 28 18 26 30.6400000  0  0
 23 11 28 18 26 31.6400000  0  0
 23 11 28 18 26 32.6400000  0  0
 23 11 28 18 26 33.6400000  0  0
 23 11 28 18 26 34.6400000  0  0
 23 11 28 18 26 35.6400000  0  0
 23 11 28 18 26 36.6400000  0  0
 23 11 28 18 26 37.6400000  0  0
 23 11 28 18 26 38.6400000  0  0
 23 11 28 18 26 39.6400000  0  0
 23 11 28 18 26 40.6400000  0  0
 23 11 28 18 26 41.6400000  0  0
 23 11 28 18 26 42.6400000  0  0
 23 11 28 18 26 43.6400000  0  0
 23 11 28 18 26 44.6400000  0  0
 23 11 28 18 26 45.6400000  0  0
 23 11 28 18 26 46.6400000  0  0
 23 11 28 18 26 47.6400000  0  0
 23 11 28 18 26 48.6400000  0  0
 23 11 28 18 26 49.6400000  0  0
 23 11 28 18 26 50.6400000  0  0
 23 11 28 18 26 51.6400000  0  0
 23 11 28 18 26 52.6400000  0  0
 23 11 28 18 26 53.6400000  0  0
 23 11 28 18 26 54.6400000  0  0
 23 11 28 18 26 55.6400000  0  0
 23 11 28 18 26 56.6400000  0  0
 23 11 28 18 26 57.6400000  0  0
 23 11 28 18 26 58.6400000  0  0
 23 11 28 18 26 59.6400000  0  0
 23 11 28 18 27  0.6400000  0  0
 23 11 28 18 27  1.6400000  0  0
 23 11 28 18 27  2.6400000  0  0
 23 11 28 18 27  3.6400000  0  0
 23 11 28 18 27  4.6400000  0  0
 23 11 28 18 27  5.6400000  0  0
 23 11 28 18 27  6.6400000  0  0
 23 11 28 18 27  7.6400000  0  0
 23 11 28 18 27  8.6400000  0  0
 23 11 28 18 27  9.6400000  0  0
 23 11 28 18 27 10.6400000  0  0
 23 11 28 18 27 11.6400000  0  0
 23 11 28 18 27 12.6400000  0  0
 23 11 28 18 27 13.6400000  0  0
 23 11 28 18 27 14.6400000  0  0
 23 11 28 18 27 15.6400000  0  0
 23 11 28 18 27 16.6400000  0  0
 23 11 28 18 27 17.6400000  0  0
 23 11 28 18 27 18.6400000  0  0
 23 11 28 18 27 19.6400000  0  0
 23 11 28 18 27 20.6400000  0  0
 23 11 28 18 27 21.6400000  0  0
 23 11 28 18 27 22.6400000  0  0
 23 11 28 18 27 23.6400000  0  0
 23 11 28 18 27 24.6400000  0  0
 23 11 28 18 27 25.6400000  0  0
 23 11 28 18 27 26.6400000  0  0
 23 11 28 18 27 27.6400000  0  0
 23 11 28 18 27 28.6400000  0  0
 23 11 28 18 27 29.6400000  0  0
 23 11 28 18 27 30.6400000  0  0
 23 11 28 18 27 31.6400000  0  0
 23 11 28 18 27 32.6400000  0  0
 23 11 28 18 27 33.6400000  0  0
 23 11 28 18 27 34.6400000  0  0
 23 11 28 18 27 35.6400000  0  0
 23 11 28 18 27 36.6400000  0  0
 23 11 28 18 27 37.6400000  0  0
 23 11 28 18 27 38.6400000  0  0
 23 11 28 18 27 39.6400000  0  0
 23 11 28 18 27 40.6400000  0  0
 23 11 28 18 27 41.6400000  0  0
 23 11 28 18 27 42.6400000  0  0
 23 11 28 18 27 43.6400000  0  0
 23 11 28 18 27 44.6400000  0  0
 23 11 28 18 27 45.6400000  0  0
 23 11 28 18 27 46.6400000  0  0
 23 11 28 18 27 47.6400000  0  0
 23 11 28 18 27 48.6400000  0  0
 23 11 28 18 27 49.6400000  0  0
 23 11 28 18 27 50.6400000  0  0
 23 11 28 18 27 51.6400000  0  0
 23 11 28 18 27 52.6400000  0  0
 23 11 28 18 27 53.6400000  0  0
 23 11 28 18 27 54.6400000  0  0
 23 11 28 18 27 55.6400000  0  0
 23 11 28 18 27 56.6400000  0  0
 23 11 28 18 27 57.6400000  0  0
 23 11 28 18 27 58.6400000  0  0
 23 11 28 18 27 59.6400000  0  0
 23 11 28 18 28  0.6400000  0  0
 23 11 28 18 28  1.6400000  0  0
 23 11 28 18 28  2.6400000  0  0
 23 11 28 18 28  3.6400000  0  0
 23 11 28 18 28  4.6400000  0  0
 23 11 28 18 28  5.6400000  0  0
 23 11 28 18 28  6.6400000  0  0
 23 11 28 18 28  7.6400000  0  0
 23 11 28 18 28  8.6400000  0  0
 23 11 28 18 28  9.6400000  0  0
 23 11 28 18 28 10.6400000  0  0
 23 11 28 18 28 11.6400000  0  0
 23 11 28 18 28 12.6400000  0  0
 23 11 28 18 28 13.6400000  0  0
 23 11 28 18 28 14.6400000  0  0
 23 11 28 18 28 15.6400000  0  0
 23 11 28 18 28 16.6400000  0  0
 23 11 28 18 28 17.6400000  0  0
 23 11 28 18 28 18.6400000  0  0
 23 11 28 18 28 19.6400000  0  0
 23 11 28 18 28 20.6400000  0  0
 23 11 28 18 28 21.6400000  0  0
 23 11 28 18 28 22.6400000  0  0
 23 11 28 18 28 23.6400000  0  0
 23 11 28 18 28 24.6400000  0  0
 23 11 28 18 28 25.6400000  0  0
 23 11 28 18 28 26.6400000  0  0
 23 11 28 18 28 27.6400000  0  0
 23 11 28 18 28 28.6400000  0  0
 23 11 28 18 28 29.6400000  0  0
 23 11 28 18 28 30.6400000  0  0
 23 11 28 18 28 31.6400000  0  0
 23 11 28 18 28 32.6400000  0  0
 23 11 28 18 28 33.6400000  0  0
 23 11 28 18 28 34.6400000  0  0
 23 11 28 18 28 35.6400000  0  0
 23 11 28 18 28 36.6400000  0  0
 23 11 28 18 28 37.6400000  0  0
 23 11 28 18 28 38.6400000  0  0
 23 11 28 18 28 39.6400000  0  0
 23 11 28 18 28 40.6400000  0  0
 23 11 28 18 28 41.6400000  0  0
 23 11 28 18 28 42.6400000  0  0
 23 11 28 18 28 43.6400000  0  0
 23 11 28 18 28 44.6400000  0  0
 23 11 28 18 28 45.6400000  0  0
 23 11 28 18 28 46.6400000  0  0
 23 11 28 18 28 47.6400000  0  0
 23 11 28 18 28 48.6400000  0  0
 23 11 28 18 28 49.6400000  0  0
 23 11 28 18 28 50.6400000  0  0
 23 11 28 18 28 51.6400000  0  0
 23 11 28 18 28 52.6400000  0  0
 23 11 28 18 28 53.6400000  0  0
 23 11 28 18 28 54.6400000  0  0
 23 11 28 18 28 55.6400000  0  0
 23 11 28 18 28 56.6400000  0  0
 23 11 28 18 28 57.6400000  0  0
 23 11 28 18 28 58.6400000  0  0
 23 11 28 18 28 59.6400000  0  0
 23 11 28 18 29  0.6400000  0  0
 23 11 28 18 29  1.6400000  0  0
 23 11 28 18 29  2.6400000  0  0
 23 11 28 18 29  3.6400000  0  0
 23 11 28 18 29  4.6400000  0  0
 23 11 28 18 29  5.6400000  0  0
 23 11 28 18 29  6.6400000  0  0
 23 11 28 18 29  7.6400000  0  0
 23 11 28 18 29  8.6400000  0  0
 23 11 28 18 29  9.6400000  0  0
 23 11 28 18 29 10.6400000  0  0
 23 11 28 18 29 11.6400000  0  0
 23 11 28 18 29 12.6400000  0  0
 23 11 28 18 29 13.6400000  0  0
 23 11 28 18 29 14.6400000  0  0
 23 11 28 18 29 15.6400000  0  0
 23 11 28 18 29 16.6400000  0  0
 23 11 28 18 29 17.6400000  0  0
 23 11 28 18 29 18.6400000  0  0
 23 11 28 18 29 19.6400000  0  0
 23 11 28 18 29 20.6400000  0  0
 23 11 28 18 29 21.6400000  0  0
 23 11 28 18 29 22.6400000  0  0
 23 11 28 18 29 23.6400000  0  0
 23 11 28 18 29 24.6400000  0  0
 23 11 28 18 29 25.6400000  0  0
 23 11 28 18 29 26.6400000  0  0
 23 11 28 18 29 27.6400000  0  0
 23 11 28 18 29 28.6400000  0  0
 23 11 28 18 29 29.6400000  0  0
 23 11 28 18 29 30.6400000  0  0
 23 11 28 18 29 31.6400000  0  0
 23 11 28 18 29 32.6400000  0  0
 23 11 28 18 29 33.6400000  0  0
 23 11 28 18 29 34.6400000  0  0
 23 11 28 18 29 35.6400000  0  0
 23 11 28 18 29 36.6400000  0  0
 23 11 28 18 29 37.6400000  0  0
 23 11 28 18 29 38.6400000  0  0
 23 11 28 18 29 39.6400000  0  0
 23 11 28 18 29 40.6400000  0  0
 23 11 28 18 29 41.6400000  0  0
 23 11 28 18 29 42.6400000  0  0
 23 11 28 18 29 43.6400000  0  0
 23 11 28 18 29 44.6400000  0  0
 23 11 28 18 29 45.6400000  0  0
 23 11 28 18 29 46.6400000  0  0
 23 11 28 18 29 47.6400000  0  0
 23 11 28 18 29 48.6400000  0  0
 23 11 28 18 29 49.6400000  0  0
 23 11 28 18 29 50.6400000  0  0
 23 11 28 18 29 51.6400000  0  0
 23 11 28 18 29 52.6400000  0  0
 23 11 28 18 29 53.6400000  0  0
 23 11 28 18 29 54.6400000  0  0
 23 11 28 18 29 55.6400000  0  0
 23 11 28 18 29 56.6400000  0  0
 23 11 28 18 29 57.6400000  0  0
 23 11 28 18 29 58.6400000  0  0
 23 11 28 18 29 59.6400000  0  0
 23 11 28 18 30  0.6400000  0  0
 23 11 28 18 30  1.6400000  0  0
 23 11 28 18 30  2.6400000  0  0
 23 11 28 18 30  3.6400000  0  0
 23 11 28 18 30  4.6400000  0  0
 23 11 28 18 30  5.6400000  0  0
 23 11 28 18 30  6.6400000  0  0
 23 11 28 18 30  7.6400000  0  0
 23 11 28 18 30  8.6400000  0  0
 23 11 28 18 30  9.6400000  0  0
 23 11 28 18 30 10.6400000  0  0
 23 11 28 18 30 11.6400000  0  0
 23 11 28 18 30 12.6400000  0  0
 23 11 28 18 30 13.6400000  0  0
 23 11 28 18 30 14.6400000  0  0
 23 11 28 18 30 15.6400000  0  0
 23 11 28 18 30 16.6400000  0  0
 23 11 28 18 30 17.6400000  0  0
 23 11 28 18 30 18.6400000  0  0
 23 11 28 18 30 19.6400000  0  0
 23 11 28 18 30 20.6400000  0  0
 23 11 28 18 30 21.6400000  0  0
 23 11 28 18 30 22.6400000  0  0
 23 11 28 18 30 23.6400000  0  0
 23 11 28 18 30 24.6400000  0  0
 23 11 28 18 30 25.6400000  0  0
 23 11 28 18 30 26.6400000  0  0
 23 11 28 18 30 27.6400000  0  0
 23 11 28 18 30 28.6400000  0  0
 23 11 28 18 30 29.6400000  0  0
 23 11 28 18 30 30.6400000  0  0
 23 11 28 18 30 31.6400000  0  0
 23 11 28 18 30 32.6400000  0  0
 23 11 28 18 30 33.6400000  0  0
 23 11 28 18 30 34.6400000  0  0
 23 11 28 18 30 35.6400000  0  0
 23 11 28 18 30 36.6400000  0  0
 23 11 28 18 30 37.6400000  0  0
 23 11 28 18 30 38.6400000  0  0
 23 11 28 18 30 39.6400000  0  0
 23 11 28 18 30 40.6400000  0  0
 23 11 28 18 30 41.6400000  0  0
 23 11 28 18 30 42.6400000  0  0
 23 11 28 18 30 43.6400000  0  0
 23 11 28 18 30 44.6400000  0  0
 23 11 28 18 30 45.6400000  0  0
 23 11 28 18 30 46.6400000  0  0
 23 11 28 18 30 47.6400000  0  0
 23 11 28 18 30 48.6400000  0  0
 23 11 28 18 30 49.6400000  0  0
 23 11 28 18 30 50.6400000  0  0
 23 11 28 18 30 51.6400000  0  0
 23 11 28 18 30 52.6400000  0  0
 23 11 28 18 30 53.6400000  0  0
 23 11 28 18 30 54.6400000  0  0
 23 11 28 18 30 55.6400000  0  0
 23 11 28 18 30 56.6400000  0  0
 23 11 28 18 30 57.6400000  0  0
 23 11 28 18 30 58.6400000  0  0
 23 11 28 18 30 59.6400000  0  0
 23 11 28 18 31  0.6400000  0  0
 23 11 28 18 31  1.6400000  0  0
 23 11 28 18 31  2.6400000  0  0
 23 11 28 18 31  3.6400000  0  0
 23 11 28 18 31  4.6400000  0  0
 23 11 28 18 31  5.6400000  0  0
 23 11 28 18 31  6.6400000  0  0
 23 11 28 18 31  7.6400000  0  0
 23 11 28 18 31  8.6400000  0  0
 23 11 28 18 31  9.6400000  0  0
 23 11 28 18 31 10.6400000  0  0
 23 11 28 18 31 11.6400000  0  0
 23 11 28 18 31 12.6400000  0  0
 23 11 28 18 31 13.6400000  0  0
 23 11 28 18 31 14.6400000  0  0
 23 11 28 18 31 15.6400000  0  0
 23 11 28 18 31 16.6400000  0  0
 23 11 28 18 31 17.6400000  0  0
 23 11 28 18 31 18.6400000  0  0
 23 11 28 18 31 19.6400000  0  0
 23 11 28 18 31 20.6400000  0  0
 23 11 28 18 31 21.6400000  0  0
 23 11 28 18 31 22.6400000  0  0
 23 11 28 18 31 23.6400000  0  0
 23 11 28 18 31 24.6400000  0  0
 23 11 28 18 31 25.6400000  0  0
 23 11 28 18 31 26.6400000  0  0
 23 11 28 18 31 27.6400000  0  0
 23 11 28 18 31 28.6400000  0  0
 23 11 28 18 31 29.6400000  0  0
 23 11 28 18 31 30.6400000  0  0
 23 11 28 18 31 31.6400000  0  0
 23 11 28 18 31 32.6400000  0  0
 23 11 28 18 31 33.6400000  0  0
 23 11 28 18 31 34.6400000  0  0
 23 11 28 18 31 35.6400000  0  0
 23 11 28 18 31 36.6400000  0  0
 23 11 28 18 31 37.6400000  0  0
 23 11 28 18 31 38.6400000  0  0
 23 11 28 18 31 39.6400000  0  0
 23 11 28 18 31 40.6400000  0  0
 23 11 28 18 31 41.6400000  0  0
 23 11 28 18 31 42.6400000  0  0
 23 11 28 18 31 43.6400000  0  0
 23 11 28 18 31 44.6400000  0  0
 23 11 28 18 31 45.6400000  0  0
 23 11 28 18 31 46.6400000  0  0
 23 11 28 18 31 47.6400000  0  0
 23 11 28 18 31 48.6400000  0  0
 23 11 28 18 31 49.6400000  0  0
 23 11 28 18 31 50.6400000  0  0
 23 11 28 18 31 51.6400000  0  0
 23 11 28 18 31 52.6400000  0  0
 23 11 28 18 31 53.6400000  0  0
 23 11 28 18 31 54.6400000  0  0
 23 11 28 18 31 55.6400000  0  0
 23 11 28 18 31 56.6400000  0  0
 23 11 28 18 31 57.6400000  0  0
 23 11 28 18 31 58.6400000  0  0
 23 11 28 18 31 59.6400000  0  0
 23 11 28 18 32  0.6400000  0  0
 23 11 28 18 32  1.6400000  0  0
 23 11 28 18 32  2.6400000  0  0
 23 11 28 18 32  3.6400000  0  0
 23 11 28 18 32  4.6400000  0  0
 23 11 28 18 32  5.6400000  0  0
 23 11 28 18 32  6.6400000  0  0
 23 11 28 18 32  7.6400000  0  0
 23 11 28 18 32  8.6400000  0  0
 23 11 28 18 32  9.6400000  0  0
 23 11 28 18 32 10.6400000  0  0
 23 11 28 18 32 11.6400000  0  0
 23 11 28 18 32 12.6400000  0  0
 23 11 28 18 32 13.6400000  0  0
 23 11 28 18 32 14.6400000  0  0
 23 11 28 18 32 15.6400000  0  0
 23 11 28 18 32 16.6400000  0  0
 23 11 28 18 32 17.6400000  0  0
 23 11 28 18 32 18.6400000  0  0
 23 11 28 18 32 19.6400000  0  0
 23 11 28 18 32 20.6400000  0  0
 23 11 28 18 32 21.6400000  0  0
 23 11 28 18 32 22.6400000  0  0
 23 11 28 18 32 23.6400000  0  0
 23 11 28 18 32 24.6400000  0  0
 23 11 28 18 32 25.6400000  0  0
 23 11 28 18 32 26.6400000  0  0
 23 11 28 18 32 27.6400000  0  0
 23 11 28 18 32 28.6400000  0  0
 23 11 28 18 32 29.6400000  0  0
 23 11 28 18 32 30.6400000  0  0
 23 11 28 18 32 31.6400000  0  0
 23 11 28 18 32 32.6400000  0  0
 23 11 28 18 32 33.6400000  0  0
 23 11 28 18 32 34.6400000  0  0
 23 11 28 18 32 35.6400000  0  0
 23 11 28 18 32 36.6400000  0  0
 23 11 28 18 32 37.6400000  0  0
 23 11 28 18 32 38.6400000  0  0
 23 11 28 18 32 39.6400000  0  0
 23 11 28 18 32 40.6400000  0  0
 23 11 28 18 32 41.6400000  0  0
 23 11 28 18 32 42.6400000  0  0
 23 11 28 18 32 43.6400000  0  0
 23 11 28 18 32 44.6400000  0  0
 23 11 28 18 32 45.6400000  0  0
 23 11 28 18 32 46.6400000  0  0
 23 11 28 18 32 47.6400000  0  0
 23 11 28 18 32 48.6400000  0  0
 23 11 28 18 32 49.6400000  0  0
 23 11 28 18 32 50.6400000  0  0
 23 11 28 18 32 51.6400000  0  0
 23 11 28 18 32 52.6400000  0  0
 23 11 28 18 32 53.6400000  0  0
 23 11 28 18 32 54.6400000  0  0
 23 11 28 18 32 55.6400000  0  0
 23 11 28 18 32 56.6400000  0  0
 23 11 28 18 32 57.6400000  0  0
 23 11 28 18 32 58.6400000  0  0
