     2.10           OBSERVATION DATA    G (GPS)             RINEX VERSION / TYPE
GOGEO               M.KREJ              20230323 192705 UTC PGM / RUN BY / DATE 
COMMENT1                                                    COMMENT             
MARKER1                                                     MARKER NAME         
                                                            MARKER NUMBER       
MKREJ               INNOVA                                  OBSERVER / AGENCY   
RCV1                                                        REC # / TYPE / VERS 
ANT1                                                        ANT # / TYPE        
  3642325.0000  1411093.3420  5025370.3360                  APPROX POSITION XYZ 
        0.0000        0.0000        0.0000                  ANTENNA: DELTA H/E/N
     1     1                                                WAVELENGTH FACT L1/2
     3    C1    L1    S1                                    # / TYPES OF OBSERV 
     1.000                                                  INTERVAL            
  2023     3    18    23    56   25.9320000     GPS         TIME OF FIRST OBS   
  2023     3    18    23    56   25.9320000     GPS         TIME OF LAST OBS    
                                                            END OF HEADER       
 23  3 18 23 56 25.9320000  0  1G 4
   -148937.880                1         63.750  
 23  3 18 23 56 26.9319998  0  1G 4
   -148907.683         161.408          63.750  
 23  3 18 23 56 27.9319995  0  1G 4
   -148874.481         323.319          63.750  
 23  3 18 23 56 28.9319993  0  1G 4
   -148843.908         485.735          63.750  
 23  3 18 23 56 29.9319991  0  1G 4
   -148811.979         648.649          63.750  
 23  3 18 23 56 30.9319989  0  1G 4
   -148779.672         812.070          63.750  
 23  3 18 23 56 31.9319986  0  2G 9G 4
    718707.634       50921.380          63.750  
   -148749.750         975.988          63.750  
 23  3 18 23 56 32.9319984  0  2G 9G 4
    718315.337       48874.496          63.750  
   -148718.525        1140.409          63.750  
 23  3 18 23 56 33.9319982  0  2G 9G 4
    717930.475       46828.012          63.750  
   -148686.864        1305.335          63.750  
 23  3 18 23 56 34.9319980  0  2G 9G 4
    717537.283       44781.945          63.750  
   -148655.149        1470.763          63.750  
 23  3 18 23 56 35.9319977  0  2G 9G 4
    717147.993       42736.294          63.750  
   -148622.447        1636.691          63.750  
 23  3 18 23 56 36.9319975  0  2G 9G 4
    716758.252       40691.052          63.750  
   -148591.886        1803.122          63.750  
 23  3 18 23 56 37.9319973  0  3G 9G11G 4
    716370.167       38646.223          63.750  
   3653322.174      204542.232          63.750  
   -148561.382        1970.056          63.750  
 23  3 18 23 56 38.9319970  0  3G 9G11G 4
    715982.926       36601.810          63.750  
   3652721.433      201395.484          63.750  
   -148528.804        2137.491          63.750  
 23  3 18 23 56 39.9319968  0  3G 9G11G 4
    715591.693       34557.804          63.750  
   3652125.779      198249.068          63.750  
   -148497.530        2305.430          63.750  
 23  3 18 23 56 40.9319966  0  3G 9G11G 4
    715202.543       32514.214          63.750  
   3651534.212      195102.986          63.750  
   -148464.037        2473.869          63.750  
 23  3 18 23 56 41.9319964  0  3G 9G11G 4
    714814.521       30471.031          63.750  
   3650920.902      191957.235          63.750  
   -148433.364        2642.811          63.750  
 23  3 18 23 56 42.9319961  0  3G 9G11G 4
    714424.146       28428.268          63.750  
   3650326.554      188811.805          63.750  
   -148399.809        2812.252          63.750  
 23  3 18 23 56 43.9319959  0  3G 9G11G 4
    714036.556       26385.912          63.750  
   3649731.733      185666.705          63.750  
   -148367.648        2982.200          63.750  
 23  3 18 23 56 44.9319957  0  3G 9G11G 4
    713647.731       24343.969          63.750  
   3649130.350      182521.942          63.750  
   -148335.130        3152.646          63.750  
 23  3 18 23 56 45.9319955  0  3G 9G11G 4
    713259.813       22302.441          63.750  
   3648531.845      179377.508          63.750  
   -148301.293        3323.594          63.750  
 23  3 18 23 56 46.9319952  0  3G 9G11G 4
    712870.659       20261.322          63.750  
   3647939.397      176233.394          63.750  
   -148271.324        3495.044          63.750  
 23  3 18 23 56 47.9319950  0  3G 9G11G 4
    712482.651       18220.622          63.750  
   3647335.649      173089.624          63.750  
   -148237.242        3666.996          63.750  
 23  3 18 23 56 48.9319948  0  3G 9G11G 4
    712094.846       16180.331          63.750  
   3646738.949      169946.179          63.750  
   -148205.910        3839.451          63.750  
 23  3 18 23 56 49.9319945  0  3G 9G11G 4
    711705.078       14140.450          63.750  
   3646137.032      166803.063          63.750  
   -148172.504        4012.408          63.750  
 23  3 18 23 56 50.9319943  0  3G 9G11G 4
    711317.781       12100.986          63.750  
   3645542.717      163660.278          63.750  
   -148138.682        4185.865          63.750  
 23  3 18 23 56 51.9319941  0  3G 9G11G 4
    710930.648       10061.934          63.750  
   3644944.308      160517.833          63.750  
   -148105.958        4359.826          63.750  
 23  3 18 23 56 52.9319939  0  3G 9G11G 4
    710542.185        8023.292          63.750  
   3644349.605      157375.706          63.750  
   -148073.400        4534.287          63.750  
 23  3 18 23 56 53.9319936  0  3G 9G11G 4
    710154.474        5985.066          63.750  
   3643750.802      154233.914          63.750  
   -148039.127        4709.249          63.750  
 23  3 18 23 56 54.9319934  0  3G 9G11G 4
    709766.782        3947.252          63.750  
   3643149.857      151092.454          63.750  
   -148006.279        4884.713          63.750  
 23  3 18 23 56 55.9319932  0  4G 9G26G11G 4
    709377.727        1909.849          63.750  
   3566084.584       35674.203          63.750  
   3642552.458      147951.331          63.750  
   -147971.563        5060.681          63.750  
 23  3 18 23 56 56.9319930  0  4G 9G26G11G 4
    708990.678        -127.141          63.750  
   3565806.677       34281.468          63.750  
   3641958.576      144810.530          63.750  
   -147938.223        5237.148          63.750  
 23  3 18 23 56 57.9319927  0  4G 9G26G11G 4
    708604.994       -2163.715          63.750  
   3565541.896       32889.276          63.750  
   3641359.126      141670.063          63.750  
   -147904.437        5414.118          63.750  
 23  3 18 23 56 58.9319925  0  4G 9G26G11G 4
    708216.429       -4199.878          63.750  
   3565278.052       31497.630          63.750  
   3640759.384      138529.935          63.750  
   -147871.176        5591.589          63.750  
 23  3 18 23 56 59.9319923  0  4G 9G26G11G 4
    707829.654       -6235.628          63.750  
   3565011.363       30106.542          63.750  
   3640163.356      135390.133          63.750  
   -147836.439        5769.561          63.750  
 23  3 18 23 57  0.9319920  0  4G 9G26G11G 4
    707441.495       -8270.964          63.750  
   3564747.143       28716.006          63.750  
   3639565.460      132250.652          63.750  
   -147802.945        5948.033          63.750  
 23  3 18 23 57  1.9319918  0  4G 9G26G11G 4
    707054.148      -10305.888          63.750  
   3564483.883       27326.023          63.750  
   3638968.002      129111.519          63.750  
   -147767.631        6127.010          63.750  
 23  3 18 23 57  2.9319916  0  4G 9G26G11G 4
    706668.762      -12340.396          63.750  
   3564216.045       25936.598          63.750  
   3638368.541      125972.713          63.750  
   -147736.178        6306.489          63.750  
 23  3 18 23 57  3.9319914  0  4G 9G26G11G 4
    706279.727      -14374.495          63.750  
   3563952.980       24547.728          63.750  
   3637774.405      122834.234          63.750  
   -147700.704        6486.465          63.750  
 23  3 18 23 57  4.9319911  0  4G 9G26G11G 4
    705893.489      -16408.180          63.750  
   3563690.216       23159.408          63.750  
   3637177.584      119696.088          63.750  
   -147667.374        6666.945          63.750  
 23  3 18 23 57  5.9319909  0  4G 9G26G11G 4
    705505.816      -18441.451          63.750  
   3563423.965       21771.643          63.750  
   3636581.702      116558.280          63.750  
   -147631.641        6847.928          63.750  
 23  3 18 23 57  6.9319907  0  4G 9G26G11G 4
    705118.592      -20474.306          63.750  
   3563163.855       20384.438          63.750  
   3635983.804      113420.795          63.750  
   -147599.078        7029.409          63.750  
 23  3 18 23 57  7.9319905  0  5G31G 9G26G11G 4
   3925949.127       57515.757          63.750  
    704731.955      -22506.751          63.750  
   3562897.827       18997.783          63.750  
   3635388.968      110283.645          63.750  
   -147562.544        7211.395          63.750  
 23  3 18 23 57  8.9319902  0  5G31G 9G26G11G 4
   3926587.038       60859.462          63.750  
    704345.939      -24538.786          63.750  
   3562631.030       17611.682          63.750  
   3634789.056      107146.835          63.750  
   -147529.233        7393.877          63.750  
 23  3 18 23 57  9.9319900  0  5G31G 9G26G11G 4
   3927221.612       64203.484          63.750  
    703959.917      -26570.401          63.750  
   3562369.833       16226.141          63.750  
   3634192.982      104010.354          63.750  
   -147493.547        7576.864          63.750  
 23  3 18 23 57 10.9319898  0  5G31G 9G26G11G 4
   3927861.478       67547.847          63.750  
    703573.183      -28601.607          63.750  
   3562107.916       14841.152          63.750  
   3633591.924      100874.210          63.750  
   -147459.209        7760.353          63.750  
 23  3 18 23 57 11.9319895  0  5G31G 9G26G11G 4
   3928499.198       70892.533          63.750  
    703186.111      -30632.397          63.750  
   3561842.763       13456.713          63.750  
   3632996.892       97738.386          63.750  
   -147423.874        7944.341          63.750  
 23  3 18 23 57 12.9319893  0  5G31G 9G26G11G 4
   3929134.574       74237.553          63.750  
    702799.829      -32662.775          63.750  
   3561579.676       12072.831          63.750  
   3632399.703       94602.906          63.750  
   -147389.690        8128.832          63.750  
 23  3 18 23 57 13.9319891  0  6G31G 9G26G11G 6G 4
   3929772.303       77582.896          63.750  
    702413.450      -34692.740          63.750  
   3561320.044       10689.503          63.750  
   3631806.744       91467.754          63.750  
    896657.803      113835.948          63.750  
   -147352.753        8313.822          63.750  
 23  3 18 23 57 14.9319889  0  6G31G 9G26G11G 6G 4
   3930404.346       80928.574          63.750  
    702026.719      -36722.289          63.750  
   3561054.114        9306.732          63.750  
   3631207.206       88332.941          63.750  
    896495.303      112980.556          63.750  
   -147318.646        8499.316          63.750  
 23  3 18 23 57 15.9319886  0  6G31G 9G26G11G 6G 4
   3931043.926       84274.571          63.750  
    701642.595      -38751.428          63.750  
   3560790.042        7924.517          63.750  
   3630608.390       85198.450          63.750  
    896332.026      112125.811          63.750  
   -147282.977        8685.310          63.750  
 23  3 18 23 57 16.9319884  0  6G31G 9G26G11G 6G 4
   3931684.365       87620.905          63.750  
    701255.646      -40780.149          63.750  
   3560528.740        6542.857          63.750  
   3630016.695       82064.310          63.750  
    896166.682      111271.736          63.750  
   -147246.820        8871.805          63.750  
 23  3 18 23 57 17.9319882  0  6G31G 9G26G11G 6G 4
   3932318.469       90967.573          63.750  
    700870.755      -42808.462          63.750  
   3560263.626        5161.751          63.750  
   3629424.641       78930.482          63.750  
    896003.112      110418.323          63.750  
   -147211.584        9058.801          63.750  
 23  3 18 23 57 18.9319880  0  6G31G 9G26G11G 6G 4
   3932956.010       94314.558          63.750  
    700483.972      -44836.356          63.750  
   3560001.857        3781.192          63.750  
   3628819.385       75797.005          63.750  
    895842.591      109565.571          63.750  
   -147176.718        9246.298          63.750  
 23  3 18 23 57 19.9319877  0  6G31G 9G26G11G 6G 4
   3933589.368       97661.876          63.750  
    700097.587      -46863.840          63.750  
   3559742.410        2401.200          63.750  
   3628226.402       72663.844          63.750  
    895681.452      108713.481          63.750  
   -147139.163        9434.296          63.750  
 23  3 18 23 57 20.9319875  0  6G31G 9G26G11G 6G 4
   3934225.705      101009.519          63.750  
    699710.432      -48890.911          63.750  
   3559478.565        1021.758          63.750  
   3627631.926       69531.032          63.750  
    895518.558      107862.052          63.750  
   -147104.718        9622.795          63.750  
 23  3 18 23 57 21.9319873  0  6G31G 9G26G11G 6G 4
   3934866.527      104357.491          63.750  
    699325.662      -50917.569          63.750  
   3559216.390        -357.125          63.750  
   3627034.616       66398.553          63.750  
    895357.003      107011.287          63.750  
   -147068.543        9811.794          63.750  
 23  3 18 23 57 22.9319870  0  6G31G 9G26G11G 6G 4
   3935503.146      107705.791          63.750  
    698940.593      -52943.810          63.750  
   3558954.683       -1735.452          63.750  
   3626434.936       63266.408          63.750  
    895193.927      106161.183          63.750  
   -147032.024       10001.298          63.750  
 23  3 18 23 57 23.9319868  0  6G31G 9G26G11G 6G 4
   3936137.774      111054.419          63.750  
    698555.433      -54969.636          63.750  
   3558689.988       -3113.227          63.750  
   3625842.780       60134.589          63.750  
    895032.928      105311.741          63.750  
   -146997.047       10191.298          63.750  
 23  3 18 23 57 24.9319866  0  6G31G 9G26G11G 6G 4
   3936778.896      114403.372          63.750  
    698169.084      -56995.052          63.750  
   3558425.995       -4490.445          63.750  
   3625246.525       57003.106          63.750  
    894871.425      104462.962          63.750  
   -146958.798       10381.801          63.750  
 23  3 18 23 57 25.9319864  0  6G31G 9G26G11G 6G 4
   3937414.993      117752.663          63.750  
    697784.343      -59020.052          63.750  
   3558165.716       -5867.109          63.750  
   3624652.229       53871.957          63.750  
    894709.360      103614.843          63.750  
   -146924.175       10572.805          63.750  
 23  3 18 23 57 26.9319861  0  6G31G 9G26G11G 6G 4
   3938050.172      121102.271          63.750  
    697398.213      -61044.641          63.750  
   3557903.151       -7243.216          63.750  
   3624054.151       50741.146          63.750  
    894548.532      102767.390          63.750  
   -146885.848       10764.310          63.750  
 23  3 18 23 57 27.9319859  0  6G31G 9G26G11G 6G 4
   3938692.125      124452.209          63.750  
    697012.950      -63068.813          63.750  
   3557644.683       -8618.767          63.750  
   3623456.755       47610.671          63.750  
    894388.354      101920.597          63.750  
   -146850.717       10956.315          63.750  
 23  3 18 23 57 28.9319857  0  6G31G 9G26G11G 6G 4
   3939326.904      127802.478          63.750  
    696629.491      -65092.572          63.750  
   3557381.447       -9993.761          63.750  
   3622865.165       44480.524          63.750  
    894225.817      101074.468          63.750  
   -146813.134       11148.820          63.750  
 23  3 18 23 57 29.9319855  0  6G31G 9G26G11G 6G 4
   3939965.211      131153.070          63.750  
    696243.800      -67115.916          63.750  
   3557119.223      -11368.198          63.750  
   3622268.793       41350.716          63.750  
    894064.864      100228.999          63.750  
   -146778.396       11341.828          63.750  
 23  3 18 23 57 30.9319852  0  6G31G 9G26G11G 6G 4
   3940603.646      134503.986          63.750  
    695860.628      -69138.849          63.750  
   3556863.234      -12742.084          63.750  
   3621671.349       38221.243          63.750  
    893904.732       99384.194          63.750  
   -146740.876       11535.336          63.750  
 23  3 18 23 57 31.9319850  0  6G31G 9G26G11G 6G 4
   3941239.771      137855.231          63.750  
    695473.897      -71161.366          63.750  
   3556596.168      -14115.408          63.750  
   3621072.857       35092.100          63.750  
    893742.683       98540.054          63.750  
   -146703.696       11729.346          63.750  
 23  3 18 23 57 32.9319848  0  6G31G 9G26G11G 6G 4
   3941878.707      141206.804          63.750  
    695088.110      -73183.470          63.750  
   3556336.083      -15488.177          63.750  
   3620479.402       31963.296          63.750  
    893583.949       97696.574          63.750  
   -146665.044       11923.855          63.750  
 23  3 18 23 57 33.9319845  0  6G31G 9G26G11G 6G 4
   3942514.416      144558.704          63.750  
    694703.744      -75205.158          63.750  
   3556074.445      -16860.390          63.750  
   3619886.755       28834.826          63.750  
    893423.697       96853.756          63.750  
   -146628.779       12118.866          63.750  
 23  3 18 23 57 34.9319843  0  6G31G 9G26G11G 6G 4
   3943153.521      147910.933          63.750  
    694317.951      -77226.435          63.750  
   3555817.779      -18232.050          63.750  
   3619291.137       25706.682          63.750  
    893264.374       96011.601          63.750  
   -146591.546       12314.377          63.750  
 23  3 18 23 57 35.9319841  0  6G31G 9G26G11G 6G 4
   3943792.134      151263.486          63.750  
    693935.115      -79247.295          63.750  
   3555551.075      -19603.150          63.750  
   3618693.802       22578.886          63.750  
    893102.891       95170.110          63.750  
   -146553.646       12510.389          63.750  
 23  3 18 23 57 36.9319839  0  6G31G 9G26G11G 6G 4
   3944429.233      154616.361          63.750  
    693552.838      -81267.743          63.750  
   3555289.266      -20973.692          63.750  
   3618094.963       19451.424          63.750  
    892942.907       94329.283          63.750  
   -146518.064       12706.899          63.750  
 23  3 18 23 57 37.9319836  0  6G31G 9G26G11G 6G 4
   3945067.660      157969.564          63.750  
    693166.412      -83287.775          63.750  
   3555030.978      -22343.684          63.750  
   3617505.921       16324.290          63.750  
    892782.941       93489.114          63.750  
   -146478.892       12903.915          63.750  
 23  3 18 23 57 38.9319834  0  6G31G 9G26G11G 6G 4
   3945706.883      161323.097          63.750  
    692780.784      -85307.394          63.750  
   3554770.191      -23713.115          63.750  
   3616916.239       13197.491          63.750  
    892624.527       92649.609          63.750  
   -146442.822       13101.427          63.750  
 23  3 18 23 57 39.9319832  0  6G31G 9G26G11G 6G 4
   3946348.182      164676.959          63.750  
    692398.935      -87326.600          63.750  
   3554508.331      -25081.987          63.750  
   3616324.744       10071.032          63.750  
    892464.025       91810.771          63.750  
   -146404.155       13299.440          63.750  
 23  3 18 23 57 40.9319830  0  6G31G 9G26G11G 6G 4
   3946981.856      168031.139          63.750  
    692014.574      -89345.388          63.750  
   3554254.116      -26450.309          63.750  
   3615719.840        6944.921          63.750  
    892306.759       90972.593          63.750  
   -146367.739       13497.954          63.750  
 23  3 18 23 57 41.9319827  0  6G31G 9G26G11G 6G 4
   3947623.021      171385.650          63.750  
    691629.172      -91363.762          63.750  
   3553993.441      -27818.064          63.750  
   3615129.617        3819.124          63.750  
    892146.732       90135.076          63.750  
   -146328.354       13696.971          63.750  
 23  3 18 23 57 42.9319825  0  6G31G 9G26G11G 6G 4
   3948260.626      174740.484          63.750  
    691246.207      -93381.726          63.750  
   3553726.367      -29185.267          63.750  
   3614529.386         693.683          63.750  
    891986.078       89298.229          63.750  
   -146291.308       13896.486          63.750  
 23  3 18 23 57 43.9319823  0  6G31G 9G26G11G 6G 4
   3948899.496      178095.640          63.750  
    690861.140      -95399.271          63.750  
   3553469.061      -30551.916          63.750  
   3613942.216       -2431.442          63.750  
    891825.401       88462.045          63.750  
   -146252.315       14096.501          63.750  
 23  3 18 23 57 44.9319820  0  6G31G 9G26G11G 6G 4
   3949535.168      181451.134          63.750  
    690477.760      -97416.406          63.750  
   3553207.690      -31918.003          63.750  
   3613344.429       -5556.219          63.750  
    891666.464       87626.514          63.750  
   -146214.889       14297.018          63.750  
 23  3 18 23 57 45.9319818  0  6G31G 9G26G11G 6G 4
   3950175.234      184806.943          63.750  
    690092.922      -99433.126          63.750  
   3552948.030      -33283.531          63.750  
   3612749.684       -8680.664          63.750  
    891508.472       86791.653          63.750  
   -146176.837       14498.037          63.750  
 23  3 18 23 57 46.9319816  0  6G31G 9G26G11G 6G 4
   3950811.825      188163.076          63.750  
    689710.201     -101449.428          63.750  
   3552689.346      -34648.513          63.750  
   3612150.365      -11804.768          63.750  
    891349.801       85957.454          63.750  
   -146137.639       14699.553          63.750  
 23  3 18 23 57 47.9319814  0  6G31G 9G26G11G 6G 4
   3951451.714      191519.539          63.750  
    689325.698     -103465.318          63.750  
   3552429.600      -36012.926          63.750  
   3611557.152      -14928.532          63.750  
    891191.314       85123.917          63.750  
   -146099.830       14901.571          63.750  
 23  3 18 23 57 48.9319811  0  6G31G 9G26G11G 6G 4
   3952091.847      194876.323          63.750  
    688942.647     -105480.792          63.750  
   3552169.414      -37376.784          63.750  
   3610970.755      -18051.983          63.750  
    891032.477       84291.048          63.750  
   -146060.750       15104.088          63.750  
 23  3 18 23 57 49.9319809  0  6G31G 9G26G11G 6G 4
   3952729.996      198233.439          63.750  
    688559.479     -107495.854          63.750  
   3551910.918      -38740.087          63.750  
   3610371.336      -21175.070          63.750  
    890873.197       83458.838          63.750  
   -146022.143       15307.107          63.750  
 23  3 18 23 57 50.9319807  0  6G31G 9G26G11G 6G 4
   3953365.345      201590.876          63.750  
    688176.327     -109510.503          63.750  
   3551652.477      -40102.830          63.750  
   3609776.489      -24297.837          63.750  
    890716.906       82627.291          63.750  
   -145983.484       15510.625          63.750  
 23  3 18 23 57 51.9319805  0  6G31G 9G26G11G 6G 4
   3954007.777      204948.636          63.750  
    687793.526     -111524.732          63.750  
   3551396.484      -41465.022          63.750  
   3609181.892      -27420.260          63.750  
    890558.607       81796.410          63.750  
   -145945.406       15714.645          63.750  
 23  3 18 23 57 52.9319802  0  6G31G 9G26G11G 6G 4
   3954645.371      208306.723          63.750  
    687408.742     -113538.552          63.750  
   3551137.495      -42826.650          63.750  
   3608585.846      -30542.351          63.750  
    890400.529       80966.194          63.750  
   -145906.855       15919.163          63.750  
 23  3 18 23 57 53.9319800  0  6G31G 9G26G11G 6G 4
   3955288.727      211665.133          63.750  
    687025.565     -115551.951          63.750  
   3550874.868      -44187.721          63.750  
   3607993.312      -33664.093          63.750  
    890243.380       80136.635          63.750  
   -145866.172       16124.185          63.750  
 23  3 18 23 57 54.9319798  0  6G31G 9G26G11G 6G 4
   3955923.854      215023.867          63.750  
    686644.441     -117564.939          63.750  
   3550614.460      -45548.229          63.750  
   3607403.947      -36785.518          63.750  
    890084.450       79307.745          63.750  
   -145827.919       16329.703          63.750  
 23  3 18 23 57 55.9319795  0  6G31G 9G26G11G 6G 4
   3956562.094      218382.925          63.750  
    686260.336     -119577.511          63.750  
   3550357.659      -46908.188          63.750  
   3606806.356      -39906.590          63.750  
    889927.557       78479.517          63.750  
   -145789.292       16535.724          63.750  
 23  3 18 23 57 56.9319793  0  6G31G 9G26G11G 6G 4
   3957201.926      221742.313          63.750  
    685878.503     -121589.669          63.750  
   3550097.609      -48267.586          63.750  
   3606212.786      -43027.328          63.750  
    889769.351       77651.950          63.750  
   -145750.433       16742.244          63.750  
 23  3 18 23 57 57.9319791  0  6G31G 9G26G11G 6G 4
   3957843.290      225102.016          63.750  
    685493.280     -123601.414          63.750  
   3549839.817      -49626.420          63.750  
   3605617.718      -46147.729          63.750  
    889611.935       76825.050          63.750  
   -145709.473       16949.263          63.750  
 23  3 18 23 57 58.9319789  0  6G31G 9G26G11G 6G 4
   3958482.802      228462.054          63.750  
    685111.748     -125612.741          63.750  
   3549581.953      -50984.706          63.750  
   3605026.298      -49267.798          63.750  
    889455.337       75998.812          63.750  
   -145671.219       17156.782          63.750  
 23  3 18 23 57 59.9319786  0  6G31G 9G26G11G 6G 4
   3959120.062      231822.402          63.750  
    684729.496     -127623.655          63.750  
   3549323.916      -52342.424          63.750  
   3604430.502      -52387.523          63.750  
    889296.194       75173.239          63.750  
   -145631.729       17364.803          63.750  
 23  3 18 23 58  0.9319784  0  6G31G 9G26G11G 6G 4
   3959763.329      235183.086          63.750  
    684349.214     -129634.153          63.750  
   3549065.116      -53699.588          63.750  
   3603837.696      -55506.915          63.750  
    889142.072       74348.326          63.750  
   -145591.003       17573.324          63.750  
 23  3 18 23 58  1.9319782  0  7G31G 9G26G11G 6G 4G17
   3960402.108      238544.087          63.750  
    683964.509     -131644.239          63.750  
   3548807.635      -55056.202          63.750  
   3603246.102      -58625.968          63.750  
    888983.706       73524.082          63.750  
   -145552.089       17782.346          63.750  
   4917477.184      100219.260          63.750  
 23  3 18 23 58  2.9319780  0  7G31G 9G26G11G 6G 4G17
   3961040.101      241905.415          63.750  
    683581.528     -133653.909          63.750  
   3548550.943      -56412.246          63.750  
   3602649.039      -61744.683          63.750  
    888829.198       72700.501          63.750  
   -145512.213       17991.864          63.750  
   4918063.630      103266.584          63.750  
 23  3 18 23 58  3.9319777  0  7G31G 9G26G11G 6G 4G17
   3961680.384      245267.063          63.750  
    683199.601     -135663.164          63.750  
   3548292.551      -57767.732          63.750  
   3602056.922      -64863.061          63.750  
    888671.380       71877.586          63.750  
   -145472.604       18201.884          63.750  
   4918645.120      106313.886          63.750  
 23  3 18 23 58  4.9319775  0  7G31G 9G26G11G 6G 4G17
   3962319.926      248629.037          63.750  
    682817.229     -137672.001          63.750  
   3548031.303      -59122.662          63.750  
   3601459.073      -67981.093          63.750  
    888514.760       71055.331          63.750  
   -145431.780       18412.405          63.750  
   4919219.563      109361.195          63.750  
 23  3 18 23 58  5.9319773  0  7G31G 9G26G11G 6G 4G17
   3962958.053      251991.338          63.750  
    682434.811     -139680.430          63.750  
   3547774.696      -60477.031          63.750  
   3600868.664      -71098.790          63.750  
    888357.475       70233.739          63.750  
   -145390.018       18623.427          63.750  
   4919798.854      112408.530          63.750  
 23  3 18 23 58  6.9319770  0  7G31G 9G26G11G 6G 4G17
   3963601.173      255353.956          63.750  
    682053.264     -141688.438          63.750  
   3547513.052      -61830.844          63.750  
   3600275.635      -74216.162          63.750  
    888201.953       69412.813          63.750  
   -145351.214       18834.946          63.750  
   4920379.311      115455.858          63.750  
 23  3 18 23 58  7.9319768  0  7G31G 9G26G11G 6G 4G17
   3964239.192      258716.897          63.750  
    681672.090     -143696.031          63.750  
   3547258.156      -63184.101          63.750  
   3599681.338      -77333.182          63.750  
    888044.254       68592.553          63.750  
   -145311.560       19046.966          63.750  
   4920957.292      118503.204          63.750  
 23  3 18 23 58  8.9319766  0  7G31G 9G26G11G 6G 4G17
   3964877.803      262080.160          63.750  
    681290.028     -145703.208          63.750  
   3547000.703      -64536.794          63.750  
   3599091.225      -80449.875          63.750  
    887890.556       67772.955          63.750  
   -145270.379       19259.484          63.750  
   4921543.149      121550.545          63.750  
 23  3 18 23 58  9.9319764  0  7G31G 9G26G11G 6G 4G17
   3965522.152      265443.748          63.750  
    680905.991     -147709.975          63.750  
   3546747.822      -65888.929          63.750  
   3598497.908      -83566.221          63.750  
    887733.086       66954.019          63.750  
   -145230.271       19472.506          63.750  
   4922121.219      124597.886          63.750  
 23  3 18 23 58 10.9319761  0  7G31G 9G26G11G 6G 4G17
   3966161.030      268807.663          63.750  
    680525.926     -149716.322          63.750  
   3546483.539      -67240.501          63.750  
   3597902.421      -86682.227          63.750  
    887579.135       66135.747          63.750  
   -145188.701       19686.026          63.750  
   4922696.244      127645.237          63.750  
 23  3 18 23 58 11.9319759  0  7G31G 9G26G11G 6G 4G17
   3966797.174      272171.895          63.750  
    680142.950     -151722.258          63.750  
   3546231.483      -68591.517          63.750  
   3597314.308      -89797.895          63.750  
    887421.883       65318.141          63.750  
   -145147.961       19900.044          63.750  
   4923280.530      130692.605          63.750  
 23  3 18 23 58 12.9319757  0  7G31G 9G26G11G 6G 4G17
   3967438.798      275536.452          63.750  
    679762.468     -153727.776          63.750  
   3545972.639      -69941.976          63.750  
   3596722.657      -92913.229          63.750  
    887268.354       64501.202          63.750  
   -145107.243       20114.563          63.750  
   4923860.157      133739.975          63.750  
 23  3 18 23 58 13.9319755  0  7G31G 9G26G11G 6G 4G17
   3968080.277      278901.331          63.750  
    679379.061     -155732.877          63.750  
   3545717.672      -71291.878          63.750  
   3596124.887      -96028.218          63.750  
    887113.115       63684.925          63.750  
   -145067.676       20329.580          63.750  
   4924438.729      136787.335          63.750  
 23  3 18 23 58 14.9319752  0  7G31G 9G26G11G 6G 4G17
   3968721.476      282266.534          63.750  
    678998.489     -157737.567          63.750  
   3545458.122      -72641.217          63.750  
   3595531.151      -99142.867          63.750  
    886956.408       62869.312          63.750  
   -145024.756       20545.101          63.750  
   4925016.040      139834.720          63.750  
 23  3 18 23 58 15.9319750  0  7G31G 9G26G11G 6G 4G17
   3969363.495      285632.052          63.750  
    678618.343     -159741.840          63.750  
   3545204.523      -73989.995          63.750  
   3594941.679     -102257.191          63.750  
    886801.396       62054.365          63.750  
   -144982.537       20761.121          63.750  
   4925600.207      142882.099          63.750  
 23  3 18 23 58 16.9319748  0  7G31G 9G26G11G 6G 4G17
   3970001.154      288997.899          63.750  
    678235.130     -161745.697          63.750  
   3544945.387      -75338.214          63.750  
   3594349.533     -105371.156          63.750  
    886646.148       61240.078          63.750  
   -144943.640       20977.638          63.750  
   4926182.181      145929.492          63.750  
 23  3 18 23 58 17.9319745  0  7G31G 9G26G11G 6G 4G17
   3970641.170      292364.064          63.750  
    677854.860     -163749.141          63.750  
   3544690.801      -76685.876          63.750  
   3593751.948     -108484.796          63.750  
    886491.598       60426.462          63.750  
   -144902.088       21194.656          63.750  
   4926762.051      148976.885          63.750  
 23  3 18 23 58 18.9319743  0  7G31G 9G26G11G 6G 4G17
   3971282.672      295730.553          63.750  
    677473.851     -165752.164          63.750  
   3544434.629      -78032.975          63.750  
   3593168.164     -111598.095          63.750  
    886337.280       59613.505          63.750  
   -144860.735       21412.174          63.750  
   4927341.466      152024.283          63.750  
 23  3 18 23 58 19.9319741  0  8G31G 9G26G11G 6G19G 4G17
   3971923.670      299097.369          63.750  
    677093.350     -167754.780          63.750  
   3544176.424      -79379.514          63.750  
   3592571.697     -114711.051          63.750  
    886181.246       58801.219          63.750  
   3723132.502      182515.676          63.750  
   -144818.185       21630.188          63.750  
   4927919.397      155071.691          63.750  
 23  3 18 23 58 20.9319739  0  8G31G 9G26G11G 6G19G 4G17
   3972562.964      302464.501          63.750  
    676709.831     -169756.974          63.750  
   3543921.260      -80725.502          63.750  
   3591979.387     -117823.666          63.750  
    886027.026       57989.595          63.750  
   3723729.230      185485.179          63.750  
   -144777.556       21848.704          63.750  
   4928505.270      158119.093          63.750  
 23  3 18 23 58 21.9319736  0  8G31G 9G26G11G 6G19G 4G17
   3973205.256      305831.955          63.750  
    676329.509     -171758.754          63.750  
   3543665.830      -82070.916          63.750  
   3591387.260     -120935.947          63.750  
    885872.997       57178.632          63.750  
   3724273.978      188455.013          63.750  
   -144736.132       22067.721          63.750  
   4929079.185      161166.508          63.750  
 23  3 18 23 58 22.9319734  0  8G31G 9G26G11G 6G19G 4G17
   3973848.595      309199.728          63.750  
    675950.319     -173760.120          63.750  
   3543408.217      -83415.778          63.750  
   3590797.536     -124047.892          63.750  
    885718.184       56368.336          63.750  
   3724843.961      191425.177          63.750  
   -144693.828       22287.235          63.750  
   4929658.021      164213.917          63.750  
 23  3 18 23 58 23.9319732  0  8G31G 9G26G11G 6G19G 4G17
   3974488.085      312567.825          63.750  
    675569.025     -175761.067          63.750  
   3543158.835      -84760.084          63.750  
   3590200.053     -127159.486          63.750  
    885563.965       55558.703          63.750  
   3725408.674      194395.618          63.750  
   -144652.662       22507.252          63.750  
   4930235.584      167261.350          63.750  
 23  3 18 23 58 24.9319730  0  8G31G 9G26G11G 6G19G 4G17
   3975128.630      315936.245          63.750  
    675188.809     -177761.605          63.750  
   3542898.206      -86103.824          63.750  
   3589610.641     -130270.742          63.750  
    885410.658       54749.735          63.750  
   3725964.566      197366.393          63.750  
   -144611.669       22727.767          63.750  
   4930819.361      170308.780          63.750  
 23  3 18 23 58 25.9319727  0  8G31G 9G26G11G 6G19G 4G17
   3975769.295      319304.983          63.750  
    674809.022     -179761.721          63.750  
   3542642.083      -87447.002          63.750  
   3589013.890     -133381.658          63.750  
    885256.991       53941.432          63.750  
   3726535.521      200337.448          63.750  
   -144567.811       22948.781          63.750  
   4931399.177      173356.202          63.750  
 23  3 18 23 58 26.9319725  0  8G31G 9G26G11G 6G19G 4G17
   3976409.970      322674.047          63.750  
    674426.938     -181761.426          63.750  
   3542385.494      -88789.617          63.750  
   3588425.258     -136492.235          63.750  
    885103.393       53133.797          63.750  
   3727107.536      203308.853          63.750  
   -144525.967       23170.293          63.750  
   4931978.617      176403.642          63.750  
 23  3 18 23 58 27.9319723  0  8G31G 9G26G11G 6G19G 4G17
   3977052.208      326043.423          63.750  
    674045.430     -183760.708          63.750  
   3542130.308      -90131.685          63.750  
   3587833.119     -139602.479          63.750  
    884948.729       52326.827          63.750  
   3727671.358      206280.548          63.750  
   -144483.658       23392.305          63.750  
   4932557.262      179451.081          63.750  
 23  3 18 23 58 28.9319720  0  8G31G 9G26G11G 6G19G 4G17
   3977690.513      329413.130          63.750  
    673666.411     -185759.581          63.750  
   3541875.232      -91473.179          63.750  
   3587241.066     -142712.368          63.750  
    884796.933       51520.517          63.750  
   3728234.518      209252.551          63.750  
   -144440.979       23614.816          63.750  
   4933138.284      182498.522          63.750  
 23  3 18 23 58 29.9319718  0  8G31G 9G26G11G 6G19G 4G17
   3978333.685      332783.149          63.750  
    673286.236     -187758.036          63.750  
   3541621.284      -92814.116          63.750  
   3586649.461     -145821.928          63.750  
    884643.305       50714.873          63.750  
   3728800.790      212224.873          63.750  
   -144398.995       23837.831          63.750  
   4933717.052      185545.977          63.750  
 23  3 18 23 58 30.9319716  0  8G31G 9G26G11G 6G19G 4G17
   3978974.860      336153.494          63.750  
    672904.848     -189756.076          63.750  
   3541367.391      -94154.500          63.750  
   3586064.361     -148931.153          63.750  
    884491.261       49909.901          63.750  
   3729366.837      215197.496          63.750  
   -144356.562       24061.338          63.750  
   4934301.113      188593.424          63.750  
 23  3 18 23 58 31.9319714  0  8G31G 9G26G11G 6G19G 4G17
   3979615.783      339524.158          63.750  
    672527.278     -191753.701          63.750  
   3541111.428      -95494.307          63.750  
   3585463.224     -152040.017          63.750  
    884336.348       49105.585          63.750  
   3729925.844      218170.443          63.750  
   -144313.166       24285.350          63.750  
   4934874.066      191640.878          63.750  
 23  3 18 23 58 32.9319711  0  8G31G 9G26G11G 6G19G 4G17
   3980258.734      342895.140          63.750  
    672145.227     -193750.909          63.750  
   3540854.528      -96833.571          63.750  
   3584874.767     -155148.559          63.750  
    884184.710       48301.943          63.750  
   3730500.421      221143.681          63.750  
   -144272.947       24509.857          63.750  
   4935455.406      194688.339          63.750  
 23  3 18 23 58 33.9319709  0  8G31G 9G26G11G 6G19G 4G17
   3980900.852      346266.445          63.750  
    671765.563     -195747.703          63.750  
   3540601.757      -98172.271          63.750  
   3584280.731     -158256.750          63.750  
    884030.413       47498.962          63.750  
   3731060.043      224117.239          63.750  
   -144227.177       24734.864          63.750  
   4936039.736      197735.808          63.750  
 23  3 18 23 58 34.9319707  0  8G31G 9G26G11G 6G19G 4G17
   3981542.748      349638.074          63.750  
    671385.546     -197744.082          63.750  
   3540348.128      -99510.403          63.750  
   3583695.996     -161364.606          63.750  
    883879.453       46696.637          63.750  
   3731626.290      227091.114          63.750  
   -144186.834       24960.375          63.750  
   4936615.029      200783.261          63.750  
 23  3 18 23 58 35.9319705  0  8G31G 9G26G11G 6G19G 4G17
   3982179.441      353010.016          63.750  
    671005.291     -199740.041          63.750  
   3540095.873     -100847.979          63.750  
   3583101.949     -164472.115          63.750  
    883728.082       45894.988          63.750  
   3732194.839      230065.289          63.750  
   -144142.373       25186.383          63.750  
   4937203.756      203830.729          63.750  
 23  3 18 23 58 36.9319702  0  8G31G 9G26G11G 6G19G 4G17
   3982823.862      356382.282          63.750  
    670626.285     -201735.583          63.750  
   3539839.627     -102184.993          63.750  
   3582514.614     -167579.294          63.750  
    883574.689       45094.004          63.750  
   3732762.194      233039.773          63.750  
   -144098.891       25412.886          63.750  
   4937777.400      206878.201          63.750  
 23  3 18 23 58 37.9319700  0  8G31G 9G26G11G 6G19G 4G17
   3983467.178      359754.859          63.750  
    670246.923     -203730.714          63.750  
   3539584.051     -103521.442          63.750  
   3581917.125     -170686.120          63.750  
    883422.922       44293.685          63.750  
   3733325.011      236014.565          63.750  
   -144058.044       25639.893          63.750  
   4938360.125      209925.679          63.750  
 23  3 18 23 58 38.9319698  0  8G31G 9G26G11G 6G19G 4G17
   3984109.582      363127.767          63.750  
    669868.042     -205725.427          63.750  
   3539328.579     -104857.337          63.750  
   3581325.114     -173792.607          63.750  
    883269.473       43494.024          63.750  
   3733893.736      238989.674          63.750  
   -144013.188       25867.396          63.750  
   4938936.556      212973.161          63.750  
 23  3 18 23 58 39.9319695  0  8G31G 9G26G11G 6G19G 4G17
   3984750.704      366500.996          63.750  
    669488.480     -207719.725          63.750  
   3539070.526     -106192.662          63.750  
   3580734.346     -176898.752          63.750  
    883116.417       42695.034          63.750  
   3734459.644      241965.083          63.750  
   -143970.077       26095.399          63.750  
   4939517.504      216020.644          63.750  
 23  3 18 23 58 40.9319693  0  8G31G 9G26G11G 6G19G 4G17
   3985394.756      369874.537          63.750  
    669107.966     -209713.604          63.750  
   3538820.254     -107527.432          63.750  
   3580151.071     -180004.566          63.750  
    882967.179       41896.711          63.750  
   3735024.303      244940.808          63.750  
   -143926.947       26323.902          63.750  
   4940099.952      219068.127          63.750  
 23  3 18 23 58 41.9319691  0  8G31G 9G26G11G 6G19G 4G17
   3986033.038      373248.400          63.750  
    668729.753     -211707.069          63.750  
   3538572.156     -108861.643          63.750  
   3579554.294     -183110.021          63.750  
    882815.039       41099.051          63.750  
   3735595.368      247916.836          63.750  
   -143883.148       26552.905          63.750  
   4940677.238      222115.617          63.750  
 23  3 18 23 58 42.9319689  0  8G31G 9G26G11G 6G19G 4G17
   3986673.205      376622.581          63.750  
    668349.705     -213700.119          63.750  
   3538311.031     -110195.274          63.750  
   3578961.641     -186215.143          63.750  
    882661.339       40302.056          63.750  
   3736159.332      250893.181          63.750  
   -143838.592       26782.404          63.750  
   4941264.813      225163.107          63.750  
 23  3 18 23 58 43.9319686  0  8G31G 9G26G11G 6G19G 4G17
   3987318.351      379997.085          63.750  
    667969.962     -215692.748          63.750  
   3538062.860     -111528.368          63.750  
   3578375.681     -189319.929          63.750  
    882510.731       39505.726          63.750  
   3736724.367      253869.821          63.750  
   -143795.455       27012.403          63.750  
   4941835.712      228210.596          63.750  
 23  3 18 23 58 44.9319684  0  8G31G 9G26G11G 6G19G 4G17
   3987961.415      383371.904          63.750  
    667591.633     -217684.968          63.750  
   3537805.499     -112860.892          63.750  
   3577781.645     -192424.362          63.750  
    882360.135       38710.062          63.750  
   3737292.104      256846.783          63.750  
   -143750.290       27242.902          63.750  
   4942418.848      231258.094          63.750  
 23  3 18 23 58 45.9319682  0  8G31G 9G26G11G 6G19G 4G17
   3988604.330      386747.043          63.750  
    667212.430     -219676.771          63.750  
   3537552.815     -114192.848          63.750  
   3577193.832     -195528.460          63.750  
    882209.767       37915.066          63.750  
   3737857.015      259824.046          63.750  
   -143707.370       27473.898          63.750  
   4942996.598      234305.591          63.750  
 23  3 18 23 58 46.9319680  0  8G31G 9G26G11G 6G19G 4G17
   3989245.490      390122.502          63.750  
    666833.282     -221668.155          63.750  
   3537300.855     -115524.248          63.750  
   3576603.014     -198632.223          63.750  
    882055.468       37120.735          63.750  
   3738418.242      262801.624          63.750  
   -143663.290       27705.396          63.750  
   4943573.090      237353.087          63.750  
 23  3 18 23 58 47.9319677  0  8G31G 9G26G11G 6G19G 4G17
   3989886.575      393498.279          63.750  
    666454.938     -223659.119          63.750  
   3537046.008     -116855.083          63.750  
   3576009.341     -201735.629          63.750  
    881903.711       36327.068          63.750  
   3738991.930      265779.501          63.750  
   -143617.225       27937.393          63.750  
   4944155.862      240400.577          63.750  
 23  3 18 23 58 48.9319675  0  8G31G 9G26G11G 6G19G 4G17
   3990529.865      396874.372          63.750  
    666076.892     -225649.671          63.750  
   3536794.105     -118185.354          63.750  
   3575417.488     -204838.698          63.750  
    881753.439       35534.069          63.750  
   3739553.212      268757.687          63.750  
   -143575.171       28169.885          63.750  
   4944735.394      243448.082          63.750  
 23  3 18 23 58 49.9319673  0  8G31G 9G26G11G 6G19G 4G17
   3991172.463      400250.787          63.750  
    665696.797     -227639.809          63.750  
   3536541.374     -119515.066          63.750  
   3574827.206     -207941.425          63.750  
    881604.277       34741.735          63.750  
   3740123.765      271736.182          63.750  
   -143529.019       28402.877          63.750  
   4945312.136      246495.591          63.750  
 23  3 18 23 58 50.9319670  0  8G31G 9G26G11G 6G19G 4G17
   3991813.730      403627.523          63.750  
    665320.498     -229629.528          63.750  
   3536285.897     -120844.223          63.750  
   3574239.237     -211043.810          63.750  
    881454.102       33950.069          63.750  
   3740691.414      274714.986          63.750  
   -143485.766       28636.368          63.750  
   4945899.998      249543.104          63.750  
 23  3 18 23 58 51.9319668  0  8G31G 9G26G11G 6G19G 4G17
   3992457.957      407004.572          63.750  
    664938.976     -231618.831          63.750  
   3536032.907     -122172.812          63.750  
   3573646.975     -214145.850          63.750  
    881302.785       33159.066          63.750  
   3741257.864      277694.097          63.750  
   -143441.967       28870.358          63.750  
   4946478.103      252590.608          63.750  
 23  3 18 23 58 52.9319666  0  8G31G 9G26G11G 6G19G 4G17
   3993101.956      410381.939          63.750  
    664561.104     -233607.716          63.750  
   3535780.745     -123500.842          63.750  
   3573058.694     -217247.549          63.750  
    881151.335       32368.727          63.750  
   3741824.310      280673.511          63.750  
   -143397.115       29104.850          63.750  
   4947062.269      255638.122          63.750  
 23  3 18 23 58 53.9319664  0  8G31G 9G26G11G 6G19G 4G17
   3993745.655      413759.633          63.750  
    664183.113     -235596.186          63.750  
   3535529.095     -124828.304          63.750  
   3572472.104     -220348.913          63.750  
    881002.865       31579.062          63.750  
   3742392.407      283653.243          63.750  
   -143352.516       29339.835          63.750  
   4947636.497      258685.628          63.750  
 23  3 18 23 58 54.9319661  0  8G31G 9G26G11G 6G19G 4G17
   3994384.407      417137.640          63.750  
    663803.646     -237584.239          63.750  
   3535276.324     -126155.205          63.750  
   3571878.224     -223449.924          63.750  
    880852.789       30790.050          63.750  
   3742960.904      286633.278          63.750  
   -143307.563       29575.325          63.750  
   4948216.903      261733.138          63.750  
 23  3 18 23 58 55.9319659  0  8G31G 9G26G11G 6G19G 4G17
   3995026.107      420515.961          63.750  
    663426.048     -239571.878          63.750  
   3535024.704     -127481.548          63.750  
   3571290.476     -226550.594          63.750  
    880703.216       30001.715          63.750  
   3743527.473      289613.614          63.750  
   -143262.116       29811.309          63.750  
   4948796.781      264780.662          63.750  
 23  3 18 23 58 56.9319657  0  8G31G 9G26G11G 6G19G 4G17
   3995671.011      423894.604          63.750  
    663048.756     -241559.097          63.750  
   3534773.496     -128807.316          63.750  
   3570696.362     -229650.921          63.750  
    880549.715       29214.039          63.750  
   3744091.661      292594.260          63.750  
   -143216.418       30047.794          63.750  
   4949377.202      267828.170          63.750  
 23  3 18 23 58 57.9319655  0  8G31G 9G26G11G 6G19G 4G17
   3996313.826      427273.559          63.750  
    662670.980     -243545.900          63.750  
   3534521.449     -130132.530          63.750  
   3570108.261     -232750.910          63.750  
    880401.727       28427.032          63.750  
   3744658.468      295575.219          63.750  
   -143172.489       30284.775          63.750  
   4949953.857      270875.692          63.750  
 23  3 18 23 58 58.9319652  0  8G31G 9G26G11G 6G19G 4G17
   3996959.790      430652.833          63.750  
    662292.062     -245532.290          63.750  
   3534270.695     -131457.191          63.750  
   3569516.844     -235850.549          63.750  
    880253.176       27640.691          63.750  
   3745231.648      298556.477          63.750  
   -143127.450       30522.258          63.750  
   4950536.799      273923.203          63.750  
 23  3 18 23 58 59.9319650  0  8G31G 9G26G11G 6G19G 4G17
   3997601.457      434032.428          63.750  
    661914.069     -247518.259          63.750  
   3534015.373     -132781.279          63.750  
   3568932.747     -238949.851          63.750  
    880104.349       26855.019          63.750  
   3745793.604      301538.043          63.750  
   -143083.113       30760.237          63.750  
   4951112.725      276970.716          63.750  
 23  3 18 23 59  0.9319648  0  8G31G 9G26G11G 6G19G 4G17
   3998244.302      437412.345          63.750  
    661536.337     -249503.813          63.750  
   3533760.553     -134104.804          63.750  
   3568335.154     -242048.805          63.750  
    879952.735       26070.013          63.750  
   3746363.246      304519.909          63.750  
   -143036.047       30998.715          63.750  
   4951696.155      280018.234          63.750  
 23  3 18 23 59  1.9319645  0  8G31G 9G26G11G 6G19G 4G17
   3998884.577      440792.570          63.750  
    661159.481     -251488.952          63.750  
   3533512.080     -135427.761          63.750  
   3567747.403     -245147.411          63.750  
    879805.183       25285.671          63.750  
   3746928.808      307502.093          63.750  
   -142990.255       31237.690          63.750  
   4952278.385      283065.763          63.750  
 23  3 18 23 59  2.9319643  0  8G31G 9G26G11G 6G19G 4G17
   3999529.823      444173.113          63.750  
    660781.185     -253473.674          63.750  
   3533261.510     -136750.162          63.750  
   3567155.059     -248245.678          63.750  
    879650.690       24501.990          63.750  
   3747496.727      310484.576          63.750  
   -142943.994       31477.169          63.750  
   4952855.465      286113.288          63.750  
 23  3 18 23 59  3.9319641  0  8G31G 9G26G11G 6G19G 4G17
   4000174.180      447553.986          63.750  
    660404.462     -255457.979          63.750  
   3533011.038     -138072.002          63.750  
   3566570.827     -251343.606          63.750  
    879504.907       23718.980          63.750  
   3748065.797      313467.370          63.750  
   -142899.602       31717.145          63.750  
   4953433.763      289160.805          63.750  
 23  3 18 23 59  4.9319639  0  8G31G 9G26G11G 6G19G 4G17
   4000817.466      450935.166          63.750  
    660025.988     -257441.862          63.750  
   3532755.510     -139393.275          63.750  
   3565981.500     -254441.185          63.750  
    879358.562       22936.639          63.750  
   3748633.491      316450.463          63.750  
   -142853.709       31957.614          63.750  
   4954016.309      292208.324          63.750  
 23  3 18 23 59  5.9319636  0  8G31G 9G26G11G 6G19G 4G17
   4001461.521      454316.663          63.750  
    659646.845     -259425.334          63.750  
   3532505.909     -140713.986          63.750  
   3565392.938     -257538.419          63.750  
    879210.747       22154.966          63.750  
   3749200.312      319433.868          63.750  
   -142809.384       32198.585          63.750  
   4954597.473      295255.844          63.750  
 23  3 18 23 59  6.9319634  0  8G31G 9G26G11G 6G19G 4G17
   4002104.895      457698.475          63.750  
    659270.707     -261408.390          63.750  
   3532253.833     -142034.136          63.750  
   3564799.912     -260635.315          63.750  
    879060.452       21373.955          63.750  
   3749768.972      322417.578          63.750  
   -142762.380       32440.056          63.750  
   4955175.805      298303.360          63.750  
 23  3 18 23 59  7.9319632  0  8G31G 9G26G11G 6G19G 4G17
   4002750.186      461080.604          63.750  
    658894.076     -263391.025          63.750  
   3532004.669     -143353.718          63.750  
   3564212.291     -263731.854          63.750  
    878912.014       20593.608          63.750  
   3750340.381      325401.588          63.750  
   -142717.475       32682.022          63.750  
   4955753.684      301350.887          63.750  
 23  3 18 23 59  8.9319630  0  8G31G 9G26G11G 6G19G 4G17
   4003391.594      464463.051          63.750  
    658516.698     -265373.245          63.750  
   3531756.136     -144672.742          63.750  
   3563626.261     -266828.059          63.750  
    878762.562       19813.934          63.750  
   3750903.104      328385.905          63.750  
   -142670.312       32924.490          63.750  
   4956334.491      304398.402          63.750  
 23  3 18 23 59  9.9319627  0  8G31G 9G26G11G 6G19G 4G17
   4004036.301      467845.813          63.750  
    658137.813     -267355.051          63.750  
   3531504.641     -145991.202          63.750  
   3563036.055     -269923.922          63.750  
    878615.703       19034.922          63.750  
   3751473.381      331370.529          63.750  
   -142623.426       33167.454          63.750  
   4956916.237      307445.928          63.750  
 23  3 18 23 59 10.9319625  0  8G31G 9G26G11G 6G19G 4G17
   4004678.309      471228.894          63.750  
    657761.766     -269336.434          63.750  
   3531251.517     -147309.088          63.750  
   3562447.269     -273019.435          63.750  
    878467.201       18256.578          63.750  
   3752040.559      334355.456          63.750  
   -142576.263       33410.917          63.750  
   4957492.471      310493.438          63.750  
 23  3 18 23 59 11.9319623  0  8G31G 9G26G11G 6G19G 4G17
   4005325.201      474612.295          63.750  
    657384.681     -271317.406          63.750  
   3531000.363     -148626.420          63.750  
   3561855.393     -276114.604          63.750  
    878317.020       17478.903          63.750  
   3752605.999      337340.696          63.750  
   -142529.719       33654.877          63.750  
   4958074.412      313540.985          63.750  
 23  3 18 23 59 12.9319620  0  8G31G 9G26G11G 6G19G 4G17
   4005968.248      477996.006          63.750  
    657008.308     -273297.959          63.750  
   3530753.063     -149943.191          63.750  
   3561269.554     -279209.432          63.750  
    878171.442       16701.892          63.750  
   3753174.851      340326.238          63.750  
   -142485.725       33899.338          63.750  
   4958657.145      316588.484          63.750  
 23  3 18 23 59 13.9319618  0  8G31G 9G26G11G 6G19G 4G17
   4006610.790      481380.033          63.750  
    656631.853     -275278.093          63.750  
   3530497.480     -151259.390          63.750  
   3560678.791     -282303.905          63.750  
    878025.687       15925.543          63.750  
   3753746.240      343312.076          63.750  
   -142437.728       34144.296          63.750  
   4959230.515      319636.008          63.750  
 23  3 18 23 59 14.9319616  0  8G31G 9G26G11G 6G19G 4G17
   4007253.626      484764.379          63.750  
    656254.629     -277257.812          63.750  
   3530249.983     -152575.029          63.750  
   3560089.690     -285398.041          63.750  
    877875.353       15149.871          63.750  
   3754314.110      346298.227          63.750  
   -142391.373       34389.751          63.750  
   4959813.486      322683.515          63.750  
 23  3 18 23 59 15.9319614  0  8G31G 9G26G11G 6G19G 4G17
   4007898.169      488149.038          63.750  
    655877.109     -279237.115          63.750  
   3529995.177     -153890.106          63.750  
   3559499.502     -288491.835          63.750  
    877728.725       14374.860          63.750  
   3754882.273      349284.673          63.750  
   -142343.991       34635.704          63.750  
   4960395.549      325731.035          63.750  
