     2.10           OBSERVATION DATA    G (GPS)             RINEX VERSION / TYPE
GOGEO               M.KREJ              20230605 180057 UTC PGM / RUN BY / DATE 
COMMENT1                                                    COMMENT             
MARKER1                                                     MARKER NAME         
                                                            MARKER NUMBER       
MKREJ               INNOVA                                  OBSERVER / AGENCY   
RCV1                                                        REC # / TYPE / VERS 
ANT1                                                        ANT # / TYPE        
  3642325.0000  1411093.3420  5025370.3360                  APPROX POSITION XYZ 
        0.0000        0.0000        0.0000                  ANTENNA: DELTA H/E/N
     1     1                                                WAVELENGTH FACT L1/2
     3    C1    L1    S1                                    # / TYPES OF OBSERV 
     1.000                                                  INTERVAL            
  2023     6     5    17    42   25.6790000     GPS         TIME OF FIRST OBS   
  2023     6     5    17    42   25.6790000     GPS         TIME OF LAST OBS    
                                                            END OF HEADER       
 23  6  5 17 42 25.6790000  0  2G 3G 9
    -20559.424                1         63.750  
   2009059.620                1         63.750  
 23  6  5 17 42 26.6790000  0  2G 3G 9
    -20347.162        1132.736          63.750  
   2008495.158       -2980.881          63.750  
 23  6  5 17 42 27.6790000  0  2G 3G 9
    -20133.196        2265.526          63.750  
   2007924.834       -5961.871          63.750  
 23  6  5 17 42 28.6790000  0  2G 3G 9
    -19917.516        3398.921          63.750  
   2007359.937       -8942.400          63.750  
 23  6  5 17 42 29.6790000  0  2G 3G 9
    -19701.426        4533.299          63.750  
   2006791.598      -11922.108          63.750  
 23  6  5 17 42 30.6790000  0  2G 3G 9
    -19483.527        5668.434          63.750  
   2006221.838      -14901.216          63.750  
 23  6  5 17 42 31.6790000  0  3G19G 3G 9
   2288566.649     -136062.349          63.750  
    -19271.260        6804.133          63.750  
   2005655.090      -17879.930          63.750  
 23  6  5 17 42 32.6790000  0  3G19G 3G 9
   2288871.287     -134464.861          63.750  
    -19053.499        7940.090          63.750  
   2005086.938      -20858.543          63.750  
 23  6  5 17 42 33.6790000  0  3G19G 3G 9
   2289176.175     -132867.073          63.750  
    -18840.652        9076.140          63.750  
   2004522.750      -23837.183          63.750  
 23  6  5 17 42 34.6790000  0  3G19G 3G 9
   2289477.763     -131268.437          63.750  
    -18623.395       10212.884          63.750  
   2003956.296      -26815.322          63.750  
 23  6  5 17 42 35.6790000  0  3G19G 3G 9
   2289781.535     -129669.297          63.750  
    -18406.008       11349.945          63.750  
   2003390.905      -29793.285          63.750  
 23  6  5 17 42 36.6790000  0  3G19G 3G 9
   2290085.806     -128069.769          63.750  
    -18187.439       12487.188          63.750  
   2002825.586      -32771.210          63.750  
 23  6  5 17 42 37.6790000  0  3G19G 3G 9
   2290392.705     -126469.638          63.750  
    -17973.430       13624.877          63.750  
   2002259.380      -35748.858          63.750  
 23  6  5 17 42 38.6790000  0  3G19G 3G 9
   2290696.506     -124869.093          63.750  
    -17756.457       14762.799          63.750  
   2001691.040      -38726.436          63.750  
 23  6  5 17 42 39.6790000  0  3G19G 3G 9
   2291000.695     -123267.575          63.750  
    -17537.455       15901.497          63.750  
   2001124.754      -41703.386          63.750  
 23  6  5 17 42 40.6790000  0  3G19G 3G 9
   2291307.066     -121665.491          63.750  
    -17322.151       17040.592          63.750  
   2000558.526      -44680.103          63.750  
 23  6  5 17 42 41.6790000  0  3G19G 3G 9
   2291614.195     -120063.062          63.750  
    -17108.188       18179.844          63.750  
   1999992.193      -47656.809          63.750  
 23  6  5 17 42 42.6790000  0  3G19G 3G 9
   2291917.658     -118459.910          63.750  
    -16894.178       19319.634          63.750  
   1999425.411      -50633.123          63.750  
 23  6  5 17 42 43.6790000  0  3G19G 3G 9
   2292221.492     -116856.142          63.750  
    -16674.264       20459.875          63.750  
   1998861.835      -53609.162          63.750  
 23  6  5 17 42 44.6790000  0  3G19G 3G 9
   2292528.766     -115251.196          63.750  
    -16458.626       21601.099          63.750  
   1998293.182      -56584.360          63.750  
 23  6  5 17 42 45.6790000  0  3G19G 3G 9
   2292831.803     -113645.312          63.750  
    -16241.596       22743.091          63.750  
   1997725.502      -59558.949          63.750  
 23  6  5 17 42 46.6790000  0  3G19G 3G 9
   2293137.836     -112039.096          63.750  
    -16018.955       23885.228          63.750  
   1997157.907      -62533.539          63.750  
 23  6  5 17 42 47.6790000  0  3G19G 3G 9
   2293441.699     -110432.743          63.750  
    -15804.663       25027.320          63.750  
   1996591.636      -65508.342          63.750  
 23  6  5 17 42 48.6790000  0  3G19G 3G 9
   2293748.892     -108826.467          63.750  
    -15585.244       26169.165          63.750  
   1996027.361      -68483.540          63.750  
 23  6  5 17 42 49.6790000  0  3G19G 3G 9
   2294055.485     -107218.980          63.750  
    -15369.323       27312.035          63.750  
   1995460.004      -71457.859          63.750  
 23  6  5 17 42 50.6790000  0  3G19G 3G 9
   2294361.642     -105610.759          63.750  
    -15150.245       28455.466          63.750  
   1994895.572      -74431.801          63.750  
 23  6  5 17 42 51.6790000  0  3G19G 3G 9
   2294667.106     -104001.997          63.750  
    -14930.889       29599.232          63.750  
   1994329.905      -77405.516          63.750  
 23  6  5 17 42 52.6790000  0  3G19G 3G 9
   2294974.017     -102392.540          63.750  
    -14713.140       30743.530          63.750  
   1993765.687      -80378.896          63.750  
 23  6  5 17 42 53.6790000  0  3G19G 3G 9
   2295280.998     -100782.190          63.750  
    -14492.571       31888.560          63.750  
   1993198.806      -83351.703          63.750  
 23  6  5 17 42 54.6790000  0  3G19G 3G 9
   2295587.052      -99171.044          63.750  
    -14275.550       33034.189          63.750  
   1992633.947      -86324.055          63.750  
 23  6  5 17 42 55.6790000  0  3G19G 3G 9
   2295894.729      -97559.667          63.750  
    -14057.502       34179.850          63.750  
   1992068.935      -89296.506          63.750  
 23  6  5 17 42 56.6790000  0  3G19G 3G 9
   2296200.684      -95947.502          63.750  
    -13840.751       35326.127          63.750  
   1991503.697      -92268.516          63.750  
 23  6  5 17 42 57.6790000  0  3G19G 3G 9
   2296505.898      -94334.257          63.750  
    -13621.063       36473.323          63.750  
   1990936.033      -95239.765          63.750  
 23  6  5 17 42 58.6790000  0  3G19G 3G 9
   2296814.880      -92720.452          63.750  
    -13403.850       37620.895          63.750  
   1990372.846      -98210.796          63.750  
 23  6  5 17 42 59.6790000  0  3G19G 3G 9
   2297121.747      -91106.170          63.750  
    -13185.847       38768.759          63.750  
   1989806.547     -101181.679          63.750  
 23  6  5 17 43  0.6790000  0  3G19G 3G 9
   2297428.928      -89491.279          63.750  
    -12967.535       39917.061          63.750  
   1989240.669     -104152.276          63.750  
 23  6  5 17 43  1.6790000  0  3G19G 3G 9
   2297735.788      -87876.135          63.750  
    -12748.102       41065.424          63.750  
   1988676.017     -107122.963          63.750  
 23  6  5 17 43  2.6790000  0  3G19G 3G 9
   2298042.810      -86260.356          63.750  
    -12528.865       42214.247          63.750  
   1988111.593     -110093.343          63.750  
 23  6  5 17 43  3.6790000  0  3G19G 3G 9
   2298350.338      -84643.562          63.750  
    -12307.257       43363.902          63.750  
   1987543.792     -113063.055          63.750  
 23  6  5 17 43  4.6790000  0  3G19G 3G 9
   2298658.915      -83026.000          63.750  
    -12090.447       44514.145          63.750  
   1986979.760     -116032.328          63.750  
 23  6  5 17 43  5.6790000  0  3G19G 3G 9
   2298966.765      -81407.645          63.750  
    -11871.347       45665.006          63.750  
   1986413.888     -119001.136          63.750  
 23  6  5 17 43  6.6790000  0  3G19G 3G 9
   2299275.452      -79788.743          63.750  
    -11655.185       46816.229          63.750  
   1985850.457     -121969.743          63.750  
 23  6  5 17 43  7.6790000  0  3G19G 3G 9
   2299582.151      -78169.476          63.750  
    -11438.022       47967.660          63.750  
   1985283.448     -124938.275          63.750  
 23  6  5 17 43  8.6790000  0  3G19G 3G 9
   2299891.457      -76549.706          63.750  
    -11217.733       49119.390          63.750  
   1984719.773     -127906.674          63.750  
 23  6  5 17 43  9.6790000  0  3G19G 3G 9
   2300198.359      -74928.848          63.750  
    -11000.961       50272.057          63.750  
   1984154.595     -130874.290          63.750  
 23  6  5 17 43 10.6790000  0  3G19G 3G 9
   2300506.174      -73307.604          63.750  
    -10780.562       51424.911          63.750  
   1983587.379     -133841.874          63.750  
 23  6  5 17 43 11.6790000  0  3G19G 3G 9
   2300814.927      -71685.462          63.750  
    -10561.817       52578.503          63.750  
   1983022.883     -136808.873          63.750  
 23  6  5 17 43 12.6790000  0  3G19G 3G 9
   2301120.812      -70062.591          63.750  
    -10341.989       53732.632          63.750  
   1982458.266     -139775.489          63.750  
 23  6  5 17 43 13.6790000  0  3G19G 3G 9
   2301430.406      -68439.229          63.750  
    -10121.465       54887.083          63.750  
   1981891.952     -142741.917          63.750  
 23  6  5 17 43 14.6790000  0  3G19G 3G 9
   2301739.823      -66815.402          63.750  
     -9902.412       56041.822          63.750  
   1981329.256     -145708.232          63.750  
 23  6  5 17 43 15.6790000  0  3G19G 3G 9
   2302049.643      -65190.319          63.750  
     -9681.519       57197.640          63.750  
   1980764.864     -148673.643          63.750  
 23  6  5 17 43 16.6790000  0  3G19G 3G 9
   2302359.539      -63564.881          63.750  
     -9462.549       58353.626          63.750  
   1980200.735     -151638.995          63.750  
 23  6  5 17 43 17.6790000  0  3G19G 3G 9
   2302668.553      -61939.029          63.750  
     -9242.119       59509.823          63.750  
   1979634.291     -154604.292          63.750  
 23  6  5 17 43 18.6790000  0  3G19G 3G 9
   2302977.948      -60312.604          63.750  
     -9022.742       60666.446          63.750  
   1979069.788     -157569.344          63.750  
 23  6  5 17 43 19.6790000  0  3G19G 3G 9
   2303288.085      -58685.352          63.750  
     -8804.082       61823.706          63.750  
   1978504.708     -160533.880          63.750  
 23  6  5 17 43 20.6790000  0  3G19G 3G 9
   2303597.219      -57057.923          63.750  
     -8583.885       62980.969          63.750  
   1977940.453     -163498.594          63.750  
 23  6  5 17 43 21.6790000  0  3G19G 3G 9
   2303907.068      -55429.952          63.750  
     -8364.198       64138.580          63.750  
   1977376.951     -166463.079          63.750  
 23  6  5 17 43 22.6790000  0  3G19G 3G 9
   2304215.723      -53801.034          63.750  
     -8144.710       65296.976          63.750  
   1976813.997     -169426.975          63.750  
 23  6  5 17 43 23.6790000  0  3G19G 3G 9
   2304526.772      -52171.321          63.750  
     -7923.863       66455.981          63.750  
   1976247.402     -172390.396          63.750  
 23  6  5 17 43 24.6790000  0  3G19G 3G 9
   2304836.641      -50541.190          63.750  
     -7705.021       67615.220          63.750  
   1975684.755     -175353.729          63.750  
 23  6  5 17 43 25.6790000  0  3G19G 3G 9
   2305146.808      -48910.073          63.750  
     -7486.077       68775.266          63.750  
   1975119.363     -178316.406          63.750  
 23  6  5 17 43 26.6790000  0  3G19G 3G 9
   2305456.832      -47278.467          63.750  
     -7266.590       69935.631          63.750  
   1974554.239     -181278.918          63.750  
 23  6  5 17 43 27.6790000  0  3G19G 3G 9
   2305767.740      -45646.197          63.750  
     -7042.647       71096.486          63.750  
   1973991.047     -184241.090          63.750  
 23  6  5 17 43 28.6790000  0  3G19G 3G 9
   2306079.222      -44013.512          63.750  
     -6820.474       72257.578          63.750  
   1973430.682     -187203.202          63.750  
 23  6  5 17 43 29.6790000  0  3G19G 3G 9
   2306389.736      -42379.986          63.750  
     -6600.221       73419.309          63.750  
   1972864.936     -190164.783          63.750  
 23  6  5 17 43 30.6790000  0  3G19G 3G 9
   2306701.604      -40746.095          63.750  
     -6375.298       74581.251          63.750  
   1972302.671     -193126.329          63.750  
 23  6  5 17 43 31.6790000  0  3G19G 3G 9
   2307013.707      -39111.418          63.750  
     -6153.572       75743.805          63.750  
   1971738.052     -196087.415          63.750  
 23  6  5 17 43 32.6790000  0  3G19G 3G 9
   2307326.675      -37476.406          63.750  
     -5929.754       76906.491          63.750  
   1971174.963     -199048.520          63.750  
 23  6  5 17 43 33.6790000  0  3G19G 3G 9
   2307636.364      -35840.725          63.750  
     -5709.488       78069.706          63.750  
   1970610.946     -202009.270          63.750  
 23  6  5 17 43 34.6790000  0  3G19G 3G 9
   2307947.696      -34203.987          63.750  
     -5487.656       79233.787          63.750  
   1970050.772     -204969.296          63.750  
 23  6  5 17 43 35.6790000  0  3G19G 3G 9
   2308258.857      -32566.687          63.750  
     -5264.166       80398.256          63.750  
   1969485.411     -207929.072          63.750  
 23  6  5 17 43 36.6790000  0  3G19G 3G 9
   2308570.581      -30928.779          63.750  
     -5042.000       81563.131          63.750  
   1968924.281     -210888.600          63.750  
 23  6  5 17 43 37.6790000  0  3G19G 3G 9
   2308881.189      -29290.533          63.750  
     -4822.423       82728.185          63.750  
   1968361.449     -213848.079          63.750  
 23  6  5 17 43 38.6790000  0  3G19G 3G 9
   2309193.099      -27650.812          63.750  
     -4598.672       83894.525          63.750  
   1967796.987     -216806.446          63.750  
 23  6  5 17 43 39.6790000  0  3G19G 3G 9
   2309504.647      -26010.334          63.750  
     -4377.340       85061.463          63.750  
   1967233.290     -219764.380          63.750  
 23  6  5 17 43 40.6790000  0  3G19G 3G 9
   2309817.580      -24370.142          63.750  
     -4156.805       86227.937          63.750  
   1966672.442     -222722.906          63.750  
 23  6  5 17 43 41.6790000  0  3G19G 3G 9
   2310129.415      -22728.611          63.750  
     -3936.643       87395.561          63.750  
   1966108.582     -225680.438          63.750  
 23  6  5 17 43 42.6790000  0  3G19G 3G 9
   2310443.197      -21086.492          63.750  
     -3713.949       88563.595          63.750  
   1965545.235     -228637.714          63.750  
 23  6  5 17 43 43.6790000  0  3G19G 3G 9
   2310753.240      -19444.243          63.750  
     -3492.941       89731.588          63.750  
   1964981.855     -231595.190          63.750  
 23  6  5 17 43 44.6790000  0  3G19G 3G 9
   2311067.455      -17801.261          63.750  
     -3270.832       90900.115          63.750  
   1964420.420     -234552.250          63.750  
 23  6  5 17 43 45.6790000  0  3G19G 3G 9
   2311381.877      -16156.806          63.750  
     -3046.759       92069.973          63.750  
   1963857.982     -237508.162          63.750  
 23  6  5 17 43 46.6790000  0  3G19G 3G 9
   2311695.921      -14512.576          63.750  
     -2824.168       93239.401          63.750  
   1963295.136     -240464.643          63.750  
 23  6  5 17 43 47.6790000  0  3G19G 3G 9
   2312006.951      -12867.940          63.750  
     -2601.209       94409.075          63.750  
   1962732.541     -243421.055          63.750  
 23  6  5 17 43 48.6790000  0  3G19G 3G 9
   2312318.990      -11222.800          63.750  
     -2377.956       95579.070          63.750  
   1962169.040     -246377.268          63.750  
 23  6  5 17 43 49.6790000  0  3G19G 3G 9
   2312631.490       -9576.722          63.750  
     -2156.601       96749.809          63.750  
   1961607.562     -249332.879          63.750  
 23  6  5 17 43 50.6790000  0  3G19G 3G 9
   2312945.608       -7929.745          63.750  
     -1931.009       97921.309          63.750  
   1961046.191     -252287.905          63.750  
 23  6  5 17 43 51.6790000  0  3G19G 3G 9
   2313258.579       -6282.290          63.750  
     -1711.146       99093.103          63.750  
   1960485.052     -255242.792          63.750  
 23  6  5 17 43 52.6790000  0  3G19G 3G 9
   2313573.148       -4633.401          63.750  
     -1489.110      100266.147          63.750  
   1959924.017     -258196.564          63.750  
 23  6  5 17 43 53.6790000  0  3G19G 3G 9
   2313887.185       -2984.205          63.750  
     -1267.321      101439.308          63.750  
   1959363.180     -261150.369          63.750  
 23  6  5 17 43 54.6790000  0  3G19G 3G 9
   2314201.236       -1335.069          63.750  
     -1042.567      102612.250          63.750  
   1958801.358     -264104.569          63.750  
 23  6  5 17 43 55.6790000  0  3G19G 3G 9
   2314514.496         314.774          63.750  
      -817.335      103785.727          63.750  
   1958239.647     -267058.352          63.750  
 23  6  5 17 43 56.6790000  0  3G19G 3G 9
   2314829.198        1965.308          63.750  
      -593.759      104959.718          63.750  
   1957677.245     -270011.779          63.750  
 23  6  5 17 43 57.6790000  0  3G19G 3G 9
   2315144.163        3616.387          63.750  
      -367.529      106134.054          63.750  
   1957116.867     -272965.017          63.750  
 23  6  5 17 43 58.6790000  0  3G19G 3G 9
   2315457.847        5267.794          63.750  
      -143.244      107308.562          63.750  
   1956555.042     -275918.223          63.750  
 23  6  5 17 43 59.6790000  0  3G19G 3G 9
   2315773.286        6920.091          63.750  
        81.482      108483.771          63.750  
   1955994.514     -278870.890          63.750  
 23  6  5 17 44  0.6790000  0  3G19G 3G 9
   2316086.635        8573.312          63.750  
       303.487      109659.724          63.750  
   1955431.843     -281822.975          63.750  
 23  6  5 17 44  1.6790000  0  3G19G 3G 9
   2316402.586       10227.562          63.750  
       524.401      110836.547          63.750  
   1954870.141     -284774.333          63.750  
 23  6  5 17 44  2.6790000  0  3G19G 3G 9
   2316717.398       11881.920          63.750  
       749.172      112013.287          63.750  
   1954307.782     -287725.889          63.750  
 23  6  5 17 44  3.6790000  0  3G19G 3G 9
   2317031.843       13536.747          63.750  
       972.854      113190.332          63.750  
   1953746.274     -290677.337          63.750  
 23  6  5 17 44  4.6790000  0  3G19G 3G 9
   2317345.438       15192.262          63.750  
      1193.235      114367.866          63.750  
   1953182.602     -293628.428          63.750  
 23  6  5 17 44  5.6790000  0  3G19G 3G 9
   2317659.390       16848.447          63.750  
      1416.329      115545.922          63.750  
   1952621.426     -296579.135          63.750  
 23  6  5 17 44  6.6790000  0  3G19G 3G 9
   2317975.004       18505.164          63.750  
      1638.050      116724.316          63.750  
   1952060.305     -299529.661          63.750  
 23  6  5 17 44  7.6790000  0  3G19G 3G 9
   2318291.074       20162.562          63.750  
      1863.032      117903.234          63.750  
   1951499.591     -302479.827          63.750  
 23  6  5 17 44  8.6790000  0  3G19G 3G 9
   2318606.414       21820.874          63.750  
      2089.039      119082.864          63.750  
   1950937.345     -305429.398          63.750  
 23  6  5 17 44  9.6790000  0  3G19G 3G 9
   2318923.394       23480.123          63.750  
      2312.677      120263.260          63.750  
   1950375.663     -308378.374          63.750  
 23  6  5 17 44 10.6790000  0  3G19G 3G 9
   2319241.078       25139.715          63.750  
      2538.126      121443.819          63.750  
   1949816.104     -311327.323          63.750  
 23  6  5 17 44 11.6790000  0  3G19G 3G 9
   2319556.104       26799.945          63.750  
      2763.522      122624.857          63.750  
   1949254.206     -314275.949          63.750  
 23  6  5 17 44 12.6790000  0  3G19G 3G 9
   2319872.352       28460.693          63.750  
      2992.680      123806.255          63.750  
   1948693.562     -317224.382          63.750  
 23  6  5 17 44 13.6790000  0  3G19G 3G 9
   2320188.404       30122.125          63.750  
      3216.874      124988.137          63.750  
   1948132.251     -320172.460          63.750  
 23  6  5 17 44 14.6790000  0  3G19G 3G 9
   2320503.429       31784.319          63.750  
      3443.861      126170.608          63.750  
   1947571.253     -323120.094          63.750  
 23  6  5 17 44 15.6790000  0  3G19G 3G 9
   2320819.840       33446.935          63.750  
      3666.122      127353.336          63.750  
   1947010.531     -326067.660          63.750  
 23  6  5 17 44 16.6790000  0  3G19G 3G 9
   2321136.130       35110.250          63.750  
      3893.325      128536.589          63.750  
   1946449.430     -329014.819          63.750  
 23  6  5 17 44 17.6790000  0  3G19G 3G 9
   2321451.494       36774.018          63.750  
      4120.496      129720.106          63.750  
   1945887.122     -331961.874          63.750  
 23  6  5 17 44 18.6790000  0  3G19G 3G 9
   2321766.521       38438.897          63.750  
      4345.017      130904.591          63.750  
   1945327.604     -334908.106          63.750  
 23  6  5 17 44 19.6790000  0  3G19G 3G 9
   2322086.200       40104.626          63.750  
      4570.604      132089.714          63.750  
   1944766.275     -337853.838          63.750  
 23  6  5 17 44 20.6790000  0  3G19G 3G 9
   2322403.944       41771.161          63.750  
      4794.401      133275.482          63.750  
   1944205.951     -340799.077          63.750  
 23  6  5 17 44 21.6790000  0  3G19G 3G 9
   2322721.729       43438.021          63.750  
      5021.765      134461.435          63.750  
   1943644.423     -343744.305          63.750  
 23  6  5 17 44 22.6790000  0  3G19G 3G 9
   2323038.503       45104.885          63.750  
      5245.736      135647.187          63.750  
   1943083.314     -346689.852          63.750  
 23  6  5 17 44 23.6790000  0  3G19G 3G 9
   2323356.555       46771.818          63.750  
      5472.802      136832.867          63.750  
   1942525.079     -349635.636          63.750  
 23  6  5 17 44 24.6790000  0  3G19G 3G 9
   2323675.316       48440.272          63.750  
      5699.296      138019.887          63.750  
   1941961.697     -352580.216          63.750  
 23  6  5 17 44 25.6790000  0  3G19G 3G 9
   2323991.915       50109.142          63.750  
      5924.212      139207.157          63.750  
   1941404.517     -355524.698          63.750  
 23  6  5 17 44 26.6790000  0  3G19G 3G 9
   2324309.559       51778.436          63.750  
      6153.363      140394.660          63.750  
   1940843.103     -358469.094          63.750  
 23  6  5 17 44 27.6790000  0  3G19G 3G 9
   2324627.523       53448.631          63.750  
      6376.809      141582.903          63.750  
   1940283.720     -361412.935          63.750  
 23  6  5 17 44 28.6790000  0  3G19G 3G 9
   2324945.157       55119.440          63.750  
      6604.820      142771.562          63.750  
   1939721.180     -364356.468          63.750  
 23  6  5 17 44 29.6790000  0  3G19G 3G 9
   2325263.106       56791.048          63.750  
      6830.760      143960.881          63.750  
   1939162.307     -367299.506          63.750  
 23  6  5 17 44 30.6790000  0  3G19G 3G 9
   2325580.257       58463.362          63.750  
      7057.354      145150.692          63.750  
   1938603.322     -370242.203          63.750  
 23  6  5 17 44 31.6790000  0  3G19G 3G 9
   2325896.217       60135.937          63.750  
      7284.624      146340.630          63.750  
   1938044.850     -373184.907          63.750  
 23  6  5 17 44 32.6790000  0  3G19G 3G 9
   2326218.266       61808.939          63.750  
      7509.918      147530.804          63.750  
   1937483.697     -376127.541          63.750  
 23  6  5 17 44 33.6790000  0  3G19G 3G 9
   2326535.380       63482.415          63.750  
      7738.288      148721.271          63.750  
   1936924.646     -379070.003          63.750  
 23  6  5 17 44 34.6790000  0  3G19G 3G 9
   2326854.819       65156.930          63.750  
      7965.215      149912.609          63.750  
   1936363.529     -382011.769          63.750  
 23  6  5 17 44 35.6790000  0  3G19G 3G 9
   2327174.904       66832.198          63.750  
      8189.630      151104.521          63.750  
   1935806.143     -384953.101          63.750  
 23  6  5 17 44 36.6790000  0  3G19G 3G 9
   2327494.136       68507.609          63.750  
      8416.308      152296.412          63.750  
   1935245.363     -387894.599          63.750  
 23  6  5 17 44 37.6790000  0  3G19G 3G 9
   2327812.614       70184.011          63.750  
      8641.493      153489.102          63.750  
   1934685.344     -390835.438          63.750  
 23  6  5 17 44 38.6790000  0  3G19G 3G 9
   2328131.931       71861.109          63.750  
      8868.509      154682.327          63.750  
   1934126.771     -393775.892          63.750  
 23  6  5 17 44 39.6790000  0  3G19G 3G 9
   2328449.119       73538.781          63.750  
      9095.437      155875.947          63.750  
   1933563.752     -396716.107          63.750  
 23  6  5 17 44 40.6790000  0  3G19G 3G 9
   2328769.733       75217.218          63.750  
      9323.226      157070.157          63.750  
   1933004.809     -399655.876          63.750  
 23  6  5 17 44 41.6790000  0  3G19G 3G 9
   2329087.680       76896.401          63.750  
      9550.140      158264.943          63.750  
   1932444.501     -402595.204          63.750  
 23  6  5 17 44 42.6790000  0  3G19G 3G 9
   2329406.555       78575.975          63.750  
      9778.376      159459.957          63.750  
   1931885.357     -405534.471          63.750  
 23  6  5 17 44 43.6790000  0  3G19G 3G 9
   2329725.708       80256.552          63.750  
     10005.014      160655.796          63.750  
   1931325.208     -408473.044          63.750  
 23  6  5 17 44 44.6790000  0  3G19G 3G 9
   2330046.036       81936.993          63.750  
     10233.371      161851.311          63.750  
   1930763.459     -411412.112          63.750  
 23  6  5 17 44 45.6790000  0  3G19G 3G 9
   2330366.497       83618.645          63.750  
     10462.105      163047.869          63.750  
   1930206.272     -414350.266          63.750  
 23  6  5 17 44 46.6790000  0  3G19G 3G 9
   2330687.986       85301.257          63.750  
     10690.316      164245.225          63.750  
   1929646.853     -417287.777          63.750  
 23  6  5 17 44 47.6790000  0  3G19G 3G 9
   2331008.823       86984.578          63.750  
     10915.437      165443.113          63.750  
   1929088.882     -420224.899          63.750  
 23  6  5 17 44 48.6790000  0  3G19G 3G 9
   2331328.347       88668.048          63.750  
     11144.011      166640.961          63.750  
   1928529.255     -423162.190          63.750  
 23  6  5 17 44 49.6790000  0  3G19G 3G 9
   2331649.987       90351.968          63.750  
     11370.404      167839.111          63.750  
   1927970.711     -426099.362          63.750  
 23  6  5 17 44 50.6790000  0  3G19G 3G 9
   2331969.935       92036.188          63.750  
     11598.774      169037.401          63.750  
   1927412.878     -429036.519          63.750  
 23  6  5 17 44 51.6790000  0  3G19G 3G 9
   2332289.361       93721.369          63.750  
     11826.046      170236.443          63.750  
   1926853.139     -431973.058          63.750  
 23  6  5 17 44 52.6790000  0  3G19G 3G 9
   2332611.117       95407.652          63.750  
     12055.551      171436.444          63.750  
   1926294.584     -434908.823          63.750  
 23  6  5 17 44 53.6790000  0  3G19G 3G 9
   2332931.268       97094.503          63.750  
     12283.376      172636.836          63.750  
   1925736.948     -437844.330          63.750  
 23  6  5 17 44 54.6790000  0  3G19G 3G 9
   2333252.475       98781.970          63.750  
     12511.982      173837.646          63.750  
   1925178.851     -440779.537          63.750  
 23  6  5 17 44 55.6790000  0  3G19G 3G 9
   2333573.916      100470.345          63.750  
     12743.107      175039.238          63.750  
   1924619.358     -443714.146          63.750  
 23  6  5 17 44 56.6790000  0  3G19G 3G 9
   2333896.084      102159.029          63.750  
     12971.804      176240.943          63.750  
   1924060.491     -446648.764          63.750  
 23  6  5 17 44 57.6790000  0  3G19G 3G 9
   2334217.108      103848.320          63.750  
     13198.523      177443.076          63.750  
   1923503.861     -449583.096          63.750  
 23  6  5 17 44 58.6790000  0  3G19G 3G 9
   2334538.380      105539.025          63.750  
     13427.509      178646.457          63.750  
   1922945.418     -452516.356          63.750  
 23  6  5 17 44 59.6790000  0  3G19G 3G 9
   2334859.490      107229.712          63.750  
     13655.665      179849.651          63.750  
   1922384.991     -455449.938          63.750  
 23  6  5 17 45  0.6790000  0  3G19G 3G 9
   2335182.234      108920.093          63.750  
     13883.777      181052.353          63.750  
   1921826.720     -458384.146          63.750  
 23  6  5 17 45  1.6790000  0  3G19G 3G 9
   2335503.410      110611.192          63.750  
     14111.612      182255.609          63.750  
   1921267.175     -461317.950          63.750  
 23  6  5 17 45  2.6790000  0  3G19G 3G 9
   2335825.692      112303.217          63.750  
     14343.314      183459.610          63.750  
   1920710.609     -464251.142          63.750  
 23  6  5 17 45  3.6790000  0  3G19G 3G 9
   2336147.577      113995.976          63.750  
     14570.461      184664.203          63.750  
   1920151.919     -467183.913          63.750  
 23  6  5 17 45  4.6790000  0  3G19G 3G 9
   2336470.545      115689.113          63.750  
     14802.054      185868.993          63.750  
   1919593.460     -470116.635          63.750  
 23  6  5 17 45  5.6790000  0  3G19G 3G 9
   2336793.514      117383.322          63.750  
     15031.301      187074.657          63.750  
   1919032.356     -473048.596          63.750  
 23  6  5 17 45  6.6790000  0  3G19G 3G 9
   2337115.386      119078.050          63.750  
     15260.421      188280.684          63.750  
   1918478.007     -475980.373          63.750  
 23  6  5 17 45  7.6790000  0  3G19G 3G 9
   2337439.472      120773.591          63.750  
     15492.303      189487.365          63.750  
   1917919.089     -478911.629          63.750  
 23  6  5 17 45  8.6790000  0  3G19G 3G 9
   2337759.921      122469.655          63.750  
     15720.908      190694.377          63.750  
   1917362.691     -481842.702          63.750  
 23  6  5 17 45  9.6790000  0  3G19G 3G 9
   2338082.104      124166.326          63.750  
     15949.919      191901.846          63.750  
   1916802.927     -484773.470          63.750  
 23  6  5 17 45 10.6790000  0  3G19G 3G 9
   2338406.569      125863.658          63.750  
     16181.245      193109.800          63.750  
   1916247.274     -487703.897          63.750  
 23  6  5 17 45 11.6790000  0  3G19G 3G 9
   2338728.280      127561.385          63.750  
     16406.115      194317.955          63.750  
   1915687.780     -490634.246          63.750  
 23  6  5 17 45 12.6790000  0  3G19G 3G 9
   2339051.807      129259.803          63.750  
     16637.965      195526.654          63.750  
   1915134.004     -493564.217          63.750  
 23  6  5 17 45 13.6790000  0  3G19G 3G 9
   2339375.190      130958.652          63.750  
     16865.562      196735.646          63.750  
   1914574.970     -496494.062          63.750  
 23  6  5 17 45 14.6790000  0  3G19G 3G 9
   2339699.756      132658.289          63.750  
     17095.319      197945.205          63.750  
   1914016.241     -499423.466          63.750  
 23  6  5 17 45 15.6790000  0  3G19G 3G 9
   2340024.099      134358.477          63.750  
     17324.896      199155.153          63.750  
   1913458.820     -502352.608          63.750  
 23  6  5 17 45 16.6790000  0  3G19G 3G 9
   2340348.380      136059.659          63.750  
     17556.404      200365.916          63.750  
   1912901.799     -505281.088          63.750  
 23  6  5 17 45 17.6790000  0  3G19G 3G 9
   2340670.952      137761.230          63.750  
     17789.667      201576.920          63.750  
   1912346.578     -508209.472          63.750  
 23  6  5 17 45 18.6790000  0  3G19G 3G 9
   2340995.149      139463.321          63.750  
     18020.830      202788.275          63.750  
   1911788.146     -511137.670          63.750  
 23  6  5 17 45 19.6790000  0  4G19G 3G 9G17
   2341319.835      141166.098          63.750  
     18248.890      204000.143          63.750  
   1911230.544     -514065.479          63.750  
   3163050.511        5387.519          63.750  
 23  6  5 17 45 20.6790000  0  4G19G 3G 9G17
   2341643.122      142870.136          63.750  
     18483.820      205213.098          63.750  
   1910674.189     -516992.372          63.750  
   3163537.274        7912.259          63.750  
 23  6  5 17 45 21.6790000  0  4G19G 3G 9G17
   2341968.411      144574.665          63.750  
     18716.527      206426.371          63.750  
   1910118.428     -519919.076          63.750  
   3164012.272       10437.205          63.750  
 23  6  5 17 45 22.6790000  0  4G19G 3G 9G17
   2342290.861      146279.591          63.750  
     18948.091      207639.875          63.750  
   1909560.978     -522845.691          63.750  
   3164492.499       12962.270          63.750  
 23  6  5 17 45 23.6790000  0  4G19G 3G 9G17
   2342615.991      147984.265          63.750  
     19178.466      208852.948          63.750  
   1909004.416     -525772.876          63.750  
   3164973.933       15486.812          63.750  
 23  6  5 17 45 24.6790000  0  4G19G 3G 9G17
   2342940.727      149689.943          63.750  
     19409.327      210066.857          63.750  
   1908447.791     -528699.365          63.750  
   3165454.694       18012.066          63.750  
 23  6  5 17 45 25.6790000  0  6G19G 3G 6G 9G31G17
   2343263.519      151396.543          63.750  
     19639.379      211281.536          63.750  
   1776475.606     -157185.991          63.750  
   1907892.100     -531625.262          63.750  
   1452917.484        4662.979          63.750  
   3165939.374       20537.964          63.750  
 23  6  5 17 45 26.6790000  0  6G19G 3G 6G 9G31G17
   2343588.678      153103.814          63.750  
     19872.036      212496.704          63.750  
   1776017.697     -159607.849          63.750  
   1907334.885     -534550.790          63.750  
   1453069.236        5424.580          63.750  
   3166415.928       23064.271          63.750  
 23  6  5 17 45 27.6790000  0  6G19G 3G 6G 9G31G17
   2343912.755      154811.464          63.750  
     20102.966      213712.070          63.750  
   1775556.157     -162029.500          63.750  
   1906778.871     -537476.267          63.750  
   1453214.978        6186.683          63.750  
   3166895.760       25590.688          63.750  
 23  6  5 17 45 28.6790000  0  6G19G 3G 6G 9G31G17
   2344238.496      156520.022          63.750  
     20336.216      214928.198          63.750  
   1775093.258     -164450.396          63.750  
   1906221.163     -540401.122          63.750  
   1453362.266        6949.806          63.750  
   3167382.004       28117.757          63.750  
 23  6  5 17 45 29.6790000  0  6G19G 3G 6G 9G31G17
   2344563.695      158229.353          63.750  
     20566.411      216144.911          63.750  
   1774632.275     -166870.707          63.750  
   1905665.241     -543325.532          63.750  
   1453501.520        7713.776          63.750  
   3167857.265       30645.293          63.750  
 23  6  5 17 45 30.6790000  0  6G19G 3G 6G 9G31G17
   2344889.535      159938.973          63.750  
     20797.552      217361.740          63.750  
   1774170.043     -169290.894          63.750  
   1905107.832     -546249.969          63.750  
   1453649.923        8478.134          63.750  
   3168337.915       33172.860          63.750  
 23  6  5 17 45 31.6790000  0  6G19G 3G 6G 9G31G17
   2345214.489      161649.406          63.750  
     21027.982      218579.245          63.750  
   1773709.969     -171710.414          63.750  
   1904551.557     -549173.894          63.750  
   1453792.447        9243.423          63.750  
   3168818.957       35700.951          63.750  
 23  6  5 17 45 32.6790000  0  6G19G 3G 6G 9G31G17
   2345541.819      163360.255          63.750  
     21260.337      219796.953          63.750  
   1773249.102     -174129.714          63.750  
   1903996.430     -552097.750          63.750  
   1453937.774       10009.202          63.750  
   3169300.689       38229.185          63.750  
 23  6  5 17 45 33.6790000  0  6G19G 3G 6G 9G31G17
   2345869.121      165072.464          63.750  
     21496.042      221015.872          63.750  
   1772791.186     -176547.814          63.750  
   1903436.385     -555020.536          63.750  
   1454084.990       10776.453          63.750  
   3169782.954       40758.479          63.750  
 23  6  5 17 45 34.6790000  0  6G19G 3G 6G 9G31G17
   2346194.693      166785.073          63.750  
     21725.793      222235.026          63.750  
   1772328.949     -178965.674          63.750  
   1902880.415     -557943.242          63.750  
   1454230.501       11544.211          63.750  
   3170266.214       43287.925          63.750  
 23  6  5 17 45 35.6790000  0  6G19G 3G 6G 9G31G17
   2346520.104      168498.091          63.750  
     21958.617      223454.406          63.750  
   1771869.892     -181383.291          63.750  
   1902324.250     -560865.853          63.750  
   1454370.109       12312.502          63.750  
   3170744.854       45817.501          63.750  
 23  6  5 17 45 36.6790000  0  6G19G 3G 6G 9G31G17
   2346844.917      170211.605          63.750  
     22192.853      224674.132          63.750  
   1771409.213     -183800.588          63.750  
   1901768.988     -563788.274          63.750  
   1454522.878       13081.368          63.750  
   3171229.015       48347.303          63.750  
 23  6  5 17 45 37.6790000  0  6G19G 3G 6G 9G31G17
   2347169.184      171925.847          63.750  
     22424.376      225894.401          63.750  
   1770949.376     -186217.321          63.750  
   1901212.177     -566710.274          63.750  
   1454669.780       13851.060          63.750  
   3171713.910       50877.544          63.750  
 23  6  5 17 45 38.6790000  0  6G19G 3G 6G 9G31G17
   2347496.892      173640.666          63.750  
     22654.686      227115.082          63.750  
   1770488.729     -188633.649          63.750  
   1900658.019     -569632.020          63.750  
   1454818.998       14621.423          63.750  
   3172192.695       53408.095          63.750  
 23  6  5 17 45 39.6790000  0  6G19G 3G 6G 9G31G17
   2347823.943      175356.362          63.750  
     22889.422      228336.479          63.750  
   1770031.869     -191049.247          63.750  
   1900101.207     -572553.216          63.750  
   1454965.349       15392.770          63.750  
   3172673.785       55939.255          63.750  
 23  6  5 17 45 40.6790000  0  6G19G 3G 6G 9G31G17
   2348151.257      177072.832          63.750  
     23119.848      229558.474          63.750  
   1769573.168     -193464.244          63.750  
   1899546.472     -575473.929          63.750  
   1455106.821       16164.997          63.750  
   3173157.894       58470.903          63.750  
 23  6  5 17 45 41.6790000  0  6G19G 3G 6G 9G31G17
   2348475.355      178790.107          63.750  
     23353.525      230781.117          63.750  
   1769115.209     -195878.591          63.750  
   1898990.850     -578394.149          63.750  
   1455253.508       16938.149          63.750  
   3173639.485       61003.091          63.750  
 23  6  5 17 45 42.6790000  0  6G19G 3G 6G 9G31G17
   2348803.470      180507.962          63.750  
     23587.080      232004.165          63.750  
   1768657.111     -198292.531          63.750  
   1898437.083     -581314.112          63.750  
   1455400.520       17711.966          63.750  
   3174120.653       63535.580          63.750  
 23  6  5 17 45 43.6790000  0  7G19G 3G 6G 9G31G17G 4
   2349129.891      182225.934          63.750  
     23818.281      233227.179          63.750  
   1768196.447     -200706.495          63.750  
   1897880.494     -584234.236          63.750  
   1455548.371       18486.024          63.750  
   3174604.263       66067.929          63.750  
     96095.436      -86954.573          63.750  
 23  6  5 17 45 44.6790000  0  7G19G 3G 6G 9G31G17G 4
   2349459.790      183944.724          63.750  
     24053.730      234450.817          63.750  
   1767736.758     -203119.837          63.750  
   1897325.352     -587153.890          63.750  
   1455700.613       19260.953          63.750  
   3175082.489       68600.818          63.750  
     95857.654      -88197.728          63.750  
 23  6  5 17 45 45.6790000  0  7G19G 3G 6G 9G31G17G 4
   2349788.271      185663.927          63.750  
     24285.854      235674.720          63.750  
   1767277.588     -205532.919          63.750  
   1896771.490     -590073.430          63.750  
   1455848.391       20036.426          63.750  
   3175565.833       71133.826          63.750  
     95622.213      -89440.567          63.750  
 23  6  5 17 45 46.6790000  0  7G19G 3G 6G 9G31G17G 4
   2350114.753      187383.602          63.750  
     24518.823      236898.933          63.750  
   1766818.604     -207945.696          63.750  
   1896211.423     -592992.793          63.750  
   1455995.159       20812.458          63.750  
   3176046.264       73667.047          63.750  
     95384.960      -90683.039          63.750  
 23  6  5 17 45 47.6790000  0  7G19G 3G 6G 9G31G17G 4
   2350441.288      189104.275          63.750  
     24751.816      238123.942          63.750  
   1766357.550     -210357.641          63.750  
   1895659.703     -595911.495          63.750  
   1456145.146       21589.611          63.750  
   3176530.090       76200.978          63.750  
     95147.267      -91924.638          63.750  
 23  6  5 17 45 48.6790000  0  7G19G 3G 6G 9G31G17G 4
   2350769.723      190825.095          63.750  
     24985.209      239348.950          63.750  
   1765899.316     -212769.610          63.750  
   1895101.953     -598830.363          63.750  
   1456290.356       22366.986          63.750  
   3177009.199       78734.776          63.750  
     94909.626      -93166.177          63.750  
 23  6  5 17 45 49.6790000  0  7G19G 3G 6G 9G31G17G 4
   2351097.026      192546.679          63.750  
     25218.572      240574.570          63.750  
   1765437.878     -215180.961          63.750  
   1894548.396     -601748.758          63.750  
   1456438.492       23145.238          63.750  
   3177491.834       81269.087          63.750  
     94674.923      -94407.053          63.750  
 23  6  5 17 45 50.6790000  0  7G19G 3G 6G 9G31G17G 4
   2351424.056      194268.873          63.750  
     25449.277      241800.593          63.750  
   1764982.824     -217591.896          63.750  
   1893991.879     -604666.877          63.750  
   1456586.419       23924.199          63.750  
   3177974.919       83803.699          63.750  
     94437.190      -95647.438          63.750  
 23  6  5 17 45 51.6790000  0  7G19G 3G 6G 9G31G17G 4
   2351751.448      195992.126          63.750  
     25684.156      243027.523          63.750  
   1764523.498     -220001.911          63.750  
   1893434.904     -607584.229          63.750  
   1456736.298       24704.304          63.750  
   3178457.751       86339.113          63.750  
     94202.194      -96886.880          63.750  
 23  6  5 17 45 52.6790000  0  7G19G 3G 6G 9G31G17G 4
   2352080.902      197716.229          63.750  
     25916.313      244255.158          63.750  
   1764065.686     -222411.232          63.750  
   1892882.581     -610501.036          63.750  
   1456886.243       25485.403          63.750  
   3178940.756       88875.105          63.750  
     93962.689      -98125.555          63.750  
 23  6  5 17 45 53.6790000  0  7G19G 3G 6G 9G31G17G 4
   2352409.798      199440.788          63.750  
     26151.834      245483.053          63.750  
   1763607.685     -224820.280          63.750  
   1892327.414     -613417.716          63.750  
   1457034.786       26267.018          63.750  
   3179425.558       91411.271          63.750  
     93727.946      -99363.905          63.750  
 23  6  5 17 45 54.6790000  0  7G19G 3G 6G 9G31G17G 4
   2352736.530      201165.501          63.750  
     26385.421      246710.940          63.750  
   1763148.538     -227229.338          63.750  
   1891772.524     -616334.547          63.750  
   1457185.030       27048.919          63.750  
   3179907.803       93947.330          63.750  
     93492.749     -100602.195          63.750  
 23  6  5 17 45 55.6790000  0  7G19G 3G 6G 9G31G17G 4
   2353063.651      202890.709          63.750  
     26615.578      247939.173          63.750  
   1762689.942     -229638.039          63.750  
   1891218.558     -619251.193          63.750  
   1457333.106       27831.403          63.750  
   3180394.036       96483.593          63.750  
     93258.723     -101840.089          63.750  
 23  6  5 17 45 56.6790000  0  7G19G 3G 6G 9G31G17G 4
   2353392.360      204616.454          63.750  
     26848.834      249167.756          63.750  
   1762229.927     -232046.379          63.750  
   1890662.887     -622167.611          63.750  
   1457484.294       28614.527          63.750  
   3180874.262       99020.112          63.750  
     93022.190     -103077.549          63.750  
 23  6  5 17 45 57.6790000  0  7G19G 3G 6G 9G31G17G 4
   2353721.728      206342.715          63.750  
     27083.309      250396.704          63.750  
   1761775.058     -234454.373          63.750  
   1890108.478     -625083.821          63.750  
   1457633.096       29398.287          63.750  
   3181358.139      101556.873          63.750  
     92790.124     -104314.601          63.750  
 23  6  5 17 45 58.6790000  0  7G19G 3G 6G 9G31G17G 4
   2354052.663      208069.660          63.750  
     27315.278      251626.168          63.750  
   1761314.954     -236861.835          63.750  
   1889554.786     -627999.646          63.750  
   1457782.449       30182.815          63.750  
   3181839.493      104094.068          63.750  
     92552.081     -105551.066          63.750  
 23  6  5 17 45 59.6790000  0  7G19G 3G 6G 9G31G17G 4
   2354381.203      209797.402          63.750  
     27550.247      252856.240          63.750  
   1760856.822     -239268.665          63.750  
   1888998.158     -630915.011          63.750  
   1457931.113       30968.234          63.750  
   3182321.463      106631.754          63.750  
     92318.513     -106786.864          63.750  
 23  6  5 17 46  0.6790000  0  7G19G 3G 6G 9G31G17G 4
   2354708.015      211525.579          63.750  
     27784.397      254086.603          63.750  
   1760401.389     -241675.223          63.750  
   1888445.768     -633830.220          63.750  
   1458082.775       31754.211          63.750  
   3182803.368      109169.629          63.750  
     92082.740     -108022.323          63.750  
 23  6  5 17 46  1.6790000  0  7G19G 3G 6G 9G31G17G 4
   2355037.970      213254.416          63.750  
     28018.695      255317.466          63.750  
   1759941.890     -244081.269          63.750  
   1887889.660     -636745.095          63.750  
   1458232.806       32540.940          63.750  
   3183281.199      111707.865          63.750  
     91847.405     -109257.218          63.750  
 23  6  5 17 46  2.6790000  0  7G19G 3G 6G 9G31G17G 4
   2355364.359      214984.528          63.750  
     28254.713      256549.424          63.750  
   1759483.220     -246486.208          63.750  
   1887334.809     -639658.991          63.750  
   1458385.257       33329.033          63.750  
   3183764.931      114247.126          63.750  
     91612.737     -110490.932          63.750  
 23  6  5 17 46  3.6790000  0  7G19G 3G 6G 9G31G17G 4
   2355696.056      216714.645          63.750  
     28489.531      257781.204          63.750  
   1759027.084     -248891.324          63.750  
   1886782.150     -642573.214          63.750  
   1458534.240       34117.255          63.750  
   3184245.989      116786.082          63.750  
     91380.400     -111724.794          63.750  
 23  6  5 17 46  4.6790000  0  7G19G 3G 6G 9G31G17G 4
   2356023.237      218445.729          63.750  
     28724.396      259013.801          63.750  
   1758569.633     -251295.628          63.750  
   1886224.446     -645486.760          63.750  
   1458684.040       34906.532          63.750  
   3184729.053      119325.750          63.750  
     91143.909     -112957.758          63.750  
 23  6  5 17 46  5.6790000  0  7G19G 3G 6G 9G31G17G 4
   2356353.670      220177.291          63.750  
     28962.059      260246.701          63.750  
   1758111.740     -253699.613          63.750  
   1885670.732     -648400.157          63.750  
   1458830.909       35696.384          63.750  
   3185211.923      121865.596          63.750  
     90907.088     -114190.370          63.750  
 23  6  5 17 46  6.6790000  0  7G19G 3G 6G 9G31G17G 4
   2356682.694      221909.276          63.750  
     29196.471      261479.853          63.750  
   1757652.281     -256103.345          63.750  
   1885118.199     -651313.424          63.750  
   1458983.914       36486.763          63.750  
   3185695.789      124405.593          63.750  
     90673.700     -115422.646          63.750  
 23  6  5 17 46  7.6790000  0  7G19G 3G 6G 9G31G17G 4
   2357014.208      223641.942          63.750  
     29431.047      262713.539          63.750  
   1757196.484     -258506.551          63.750  
   1884562.220     -654226.331          63.750  
   1459132.953       37277.921          63.750  
   3186179.902      126946.018          63.750  
     90438.889     -116654.354          63.750  
 23  6  5 17 46  8.6790000  0  7G19G 3G 6G 9G31G17G 4
   2357342.337      225375.515          63.750  
     29668.163      263947.964          63.750  
   1756738.308     -260908.996          63.750  
   1884007.672     -657138.620          63.750  
   1459282.634       38070.110          63.750  
   3186666.870      129487.056          63.750  
     90206.086     -117885.246          63.750  
 23  6  5 17 46  9.6790000  0  7G19G 3G 6G 9G31G17G 4
   2357672.969      227109.581          63.750  
     29901.459      265182.692          63.750  
   1756280.730     -263311.119          63.750  
   1883451.939     -660050.736          63.750  
   1459434.156       38862.895          63.750  
   3187151.212      132028.342          63.750  
     89971.153     -119115.757          63.750  
 23  6  5 17 46 10.6790000  0  7G19G 3G 6G 9G31G17G 4
   2358003.754      228843.916          63.750  
     30135.227      266417.543          63.750  
   1755825.064     -265713.138          63.750  
   1882898.289     -662962.896          63.750  
   1459583.839       39656.030          63.750  
   3187638.321      134569.584          63.750  
     89737.812     -120346.113          63.750  
 23  6  5 17 46 11.6790000  0  7G19G 3G 6G 9G31G17G 4
   2358335.588      230578.941          63.750  
     30367.586      267652.885          63.750  
   1755367.721     -268114.644          63.750  
   1882344.677     -665874.684          63.750  
   1459735.316       40449.965          63.750  
   3188120.958      137111.242          63.750  
     89501.914     -121575.888          63.750  
 23  6  5 17 46 12.6790000  0  7G19G 3G 6G 9G31G17G 4
   2358667.729      232314.881          63.750  
     30602.566      268889.010          63.750  
   1754911.303     -270515.363          63.750  
   1881790.945     -668785.850          63.750  
   1459885.473       41244.912          63.750  
   3188603.573      139653.548          63.750  
     89268.716     -122804.867          63.750  
 23  6  5 17 46 13.6790000  0  7G19G 3G 6G 9G31G17G 4
   2358998.563      234051.084          63.750  
     30837.888      270125.224          63.750  
   1754455.958     -272916.001          63.750  
   1881235.501     -671697.070          63.750  
   1460037.600       42040.232          63.750  
   3189087.944      142195.841          63.750  
     89036.553     -124033.646          63.750  
 23  6  5 17 46 14.6790000  0  7G19G 3G 6G 9G31G17G 4
   2359326.822      235788.415          63.750  
     31074.109      271362.379          63.750  
   1753997.167     -275315.666          63.750  
   1880680.470     -674607.463          63.750  
   1460188.208       42836.771          63.750  
   3189566.916      144738.975          63.750  
     88802.712     -125261.427          63.750  
 23  6  5 17 46 15.6790000  0  7G19G 3G 6G 9G31G17G 4
   2359656.405      237526.240          63.750  
     31309.622      272599.876          63.750  
   1753542.509     -277714.996          63.750  
   1880127.638     -677517.680          63.750  
   1460345.111       43633.903          63.750  
   3190050.999      147282.336          63.750  
     88569.837     -126488.817          63.750  
 23  6  5 17 46 16.6790000  0  7G19G 3G 6G 9G31G17G 4
   2359987.216      239264.476          63.750  
     31545.034      273837.618          63.750  
   1753085.691     -280114.084          63.750  
   1879573.289     -680427.791          63.750  
   1460494.186       44431.551          63.750  
   3190530.343      149825.815          63.750  
     88332.384     -127715.903          63.750  
 23  6  5 17 46 17.6790000  0  7G19G 3G 6G 9G31G17G 4
   2360318.633      241003.426          63.750  
     31781.851      275075.897          63.750  
   1752628.919     -282512.611          63.750  
   1879021.714     -683337.502          63.750  
   1460648.569       45229.998          63.750  
   3191016.069      152369.735          63.750  
     88103.396     -128942.372          63.750  
 23  6  5 17 46 18.6790000  0  7G19G 3G 6G 9G31G17G 4
   2360650.050      242742.962          63.750  
     32017.002      276314.607          63.750  
   1752171.367     -284910.716          63.750  
   1878466.808     -686246.931          63.750  
   1460799.204       46029.177          63.750  
   3191499.634      154913.981          63.750  
     87865.586     -130168.366          63.750  
 23  6  5 17 46 19.6790000  0  7G19G 3G 6G 9G31G17G 4
   2360980.055      244483.610          63.750  
     32252.822      277554.250          63.750  
   1751715.737     -287307.855          63.750  
   1877914.277     -689155.550          63.750  
   1460952.339       46829.532          63.750  
   3191985.683      157459.074          63.750  
     87634.111     -131393.338          63.750  
 23  6  5 17 46 20.6790000  0  7G19G 3G 6G 9G31G17G 4
   2361311.197      246224.621          63.750  
     32489.915      278794.097          63.750  
   1751259.931     -289704.805          63.750  
   1877362.487     -692064.125          63.750  
   1461104.996       47630.361          63.750  
   3192466.649      160004.228          63.750  
     87402.394     -132618.074          63.750  
 23  6  5 17 46 21.6790000  0  7G19G 3G 6G 9G31G17G 4
   2361643.683      247966.071          63.750  
     32725.425      280034.239          63.750  
   1750802.740     -292101.453          63.750  
   1876810.231     -694972.544          63.750  
   1461257.121       48431.753          63.750  
   3192950.538      162549.554          63.750  
     87168.440     -133842.453          63.750  
 23  6  5 17 46 22.6790000  0  7G19G 3G 6G 9G31G17G 4
   2361976.365      249707.982          63.750  
     32962.661      281274.644          63.750  
   1750347.863     -294497.832          63.750  
   1876256.554     -697880.837          63.750  
   1461410.654       49233.683          63.750  
   3193436.572      165095.052          63.750  
     86937.669     -135066.507          63.750  
 23  6  5 17 46 23.6790000  0  7G19G 3G 6G 9G31G17G 4
   2362306.073      251450.894          63.750  
     33197.835      282515.895          63.750  
   1749892.511     -296893.345          63.750  
   1875701.867     -700788.418          63.750  
   1461564.667       50036.721          63.750  
   3193924.211      167641.287          63.750  
     86702.021     -136289.623          63.750  
 23  6  5 17 46 24.6790000  0  7G19G 3G 6G 9G31G17G 4
   2362639.301      253194.323          63.750  
     33433.397      283757.489          63.750  
   1749437.276     -299288.507          63.750  
   1875148.854     -703695.803          63.750  
   1461716.972       50840.368          63.750  
   3194408.764      170187.759          63.750  
     86469.706     -137512.367          63.750  
 23  6  5 17 46 25.6790000  0  7G19G 3G 6G 9G31G17G 4
   2362970.438      254938.085          63.750  
     33668.166      284999.277          63.750  
   1748979.467     -301683.486          63.750  
   1874596.660     -706603.147          63.750  
   1461870.985       51644.456          63.750  
   3194892.099      172734.275          63.750  
     86236.248     -138734.850          63.750  
 23  6  5 17 46 26.6790000  0  7G19G 3G 6G 9G31G17G 4
   2363302.581      256682.265          63.750  
     33904.172      286241.305          63.750  
   1748525.178     -304078.219          63.750  
   1874040.104     -709510.383          63.750  
   1462024.768       52449.076          63.750  
   3195377.630      175280.979          63.750  
     86003.309     -139957.024          63.750  
 23  6  5 17 46 27.6790000  0  7G19G 3G 6G 9G31G17G 4
   2363634.191      258427.513          63.750  
     34141.240      287484.223          63.750  
   1748069.290     -306472.046          63.750  
   1873486.620     -712416.867          63.750  
   1462177.510       53254.851          63.750  
   3195861.339      177828.435          63.750  
     85770.593     -141178.231          63.750  
 23  6  5 17 46 28.6790000  0  7G19G 3G 6G 9G31G17G 4
   2363966.377      260173.598          63.750  
     34376.520      288727.834          63.750  
   1747614.720     -308865.169          63.750  
   1872934.570     -715322.824          63.750  
   1462330.661       54061.587          63.750  
   3196345.989      180376.454          63.750  
     85539.164     -142398.681          63.750  
 23  6  5 17 46 29.6790000  0  7G19G 3G 6G 9G31G17G 4
   2364298.375      261920.018          63.750  
     34614.449      289971.585          63.750  
   1747158.210     -311258.137          63.750  
